name,latitude,longitude
Goroka,-6.081689,145.391881
Madang,-5.207083,145.7887
Mount Hagen,-5.826789,144.295861
Nadzab,-6.569828,146.726242
Port Moresby,-9.443383,147.22005
Wewak,-3.583828,143.669186
Narssarssuaq,61.160517,-45.425978
Godthaab,64.190922,-51.678064
Sondrestrom,67.016969,-50.689325
Thule,76.531203,-68.703161
Akureyri,65.659994,-18.072703
Egilsstadir,65.283333,-14.401389
Hofn,64.295556,-15.227222
Husavik,65.952328,-17.425978
Isafjordur,66.058056,-23.135278
Keflavik,63985,-22.605556
Patreksfjordur,65.555833,-23965
Reykjavik,64.13,-21.940556
Siglufjordur,66.133333,-18.916667
Vestmannaeyjar,63.424303,-20.278875
Sault Sainte Marie,46.485001,-84.509445
Winnipeg,50.056389,-97.0325
Halifax,44.639721,-63.499444
St. Anthony,51.391944,-56.083056
Tofino,49.082222,-125.7725
Pelly Bay,68.534444,-89.808056
Baie Comeau,49.1325,-68.204444
Bagotville,48.330555,-70.996391
Baker Lake,64.298889,-96.077778
Campbell River,49.950832,-125.270833
Brandon,49.91,-99.951944
Cambridge Bay,69.108055,-105.138333
Nanaimo,49.052333,-123.870167
Castlegar,49.296389,-117.6325
Chatham,47.007778,-65.449167
Charlo,47.990833,-66.330278
Coppermine,67.816667,-115.143889
Coronation,52.075001,-111.445278
Chilliwack,49.152779,-121.93889
Clyde River,70.486111,-68.516667
Coral Harbour,64.193333,-83.359444
Dawson,64.043056,-139.127778
Burwash,61.371111,-139.040556
Princeton,49.468056,-120.511389
Deer Lake,49.210833,-57.391388
Dease Lake,58.422222,-130.032222
Dauphin,51.100834,-100.0525
Dawson Creek,55.742333,-120183
Edmonton,53.309723,-113.579722
Eskimo Point,61.094166,-94.070833
Estevan,49.210278,-102.965833
Edson,53.578888,-116465
Eureka,79.994722,-85.814167
Inuvik,68.304167,-133.482778
Iqaluit,63.75639,-68.555832
Fredericton,45.868889,-66.537222
Forestville,48.746111,-69.097222
Flin Flon,54.678055,-101.681667
Fort Resolution,61.180832,-113.689722
Fort Simpson,61.760153,-121.236525
Kingston,44.225277,-76.596944
La Grande Riviere,53.625278,-77.704167
Gaspe,48.775278,-64.478611
Geraldton,49.778332,-86.939445
Iles De La Madeleine,47.424721,-61.778056
Hudson Bay,52.816666,-102.31139
Dryden,49.831667,-92.744167
Holman Island,70.762778,-117.806111
Gjoa Haven,68.635556,-95.849722
Hamilton,43.173611,-79935
Montreal,45.5175,-73.416944
Hay River,60.839722,-115.782778
Halifax,44.880833,-63.50861
Atikokan,48.773888,-91.638611
Pond Inlet,72.683334,-77.966667
St. Jean,45.294445,-73.281111
Stephenville,48.544167,-58.549999
Kamloops,50.702222,-120.444444
Waterloo,43.460833,-80.378611
Schefferville,54.805278,-66.805278
Kindersley,51.5175,-109.180833
Toronto,43.862221,-79.37
Chapleau,47.82,-83.346667
Meadow Lake,54.125278,-108.522778
Lloydminster,53.309166,-110.0725
Alert,82.517778,-62.280556
Kelowna,49.956112,-119.377778
Mayo,63.616389,-135.868333
Moose Jaw,50.330278,-105.559167
Fort Mcmurray,56.653333,-111.221944
Moosonee,51.291111,-80.607778
Maniwaki,46.272778,-75.990556
Montreal,45.681944,-74.005278
Natashquan,50.19,-61.789167
Gatineau,45.521694,-75.563589
Matagami,49.761667,-77.802778
Old Crow,67.570556,-139.839167
Cold Lake,54.404999,-110.279444
High Level,58.621389,-117.164722
Ottawa,45.3225,-75.669167
Prince Albert,53.214167,-105.672778
Peace River,56.226944,-117.447222
Portage-la-prairie,49.903056,-98.273889
Pitt Meadows,49.21611,-122.71
Pickle Lake,51.446388,-90.214167
Port Menier,49.836389,-64.288611
Peterborough,44.23,-78.363333
Prince Pupert,54.28611,-130.444722
Fort Chipewyan,58.767223,-111.117222
Muskoka,44.974722,-79.303333
Quebec,46.791111,-71.393333
Red Deer Industrial,52.182222,-113.894444
Windsor,42.275556,-82.955556
Watson Lake,60.116389,-128.8225
Kenora,49.788334,-94.363056
Lethbridge,49.630278,-112.799722
Moncton,46.112221,-64.678611
Comox,49.710833,-124.886667
Regina,50.431944,-104.665833
Thunder Bay,48.371944,-89.323889
Grande Prairie,55.179722,-118885
Yorkton,51.264721,-102.461667
North Battleford,52.769167,-108.24361
Gander,48.936944,-54.568056
Sydney,46.161388,-60.047779
Quesnel,53.026112,-122.510278
Resolute,74.716944,-94.969444
Riviere Du Loup,47.764444,-69.584722
Roberval,48.52,-72.265556
Rocky Mountain House,52.429722,-114.904167
Rankin Inlet,62.81139,-92.115833
Sudbury,46625,-80.798889
Sherbrooke,45.438611,-71.691389
St. John,45.316111,-65.890278
Fort Smith,60.020278,-111.961944
Nanisivik,72.982222,-84.613611
Summerside,46.440556,-63.833611
Sachs Harbour,71.993889,-125.2425
Cape Dorset,64.23,-76.526667
Thompson,55.801111,-97.864166
Trenton,44.118889,-77.528056
Timmins,48.569721,-81.376667
Toronto,43.627499,-79.396167
Tuktoyaktuk,69.433334,-133.026389
Montreal,45.470556,-73.740833
Repulse Bay,66.521389,-86.224722
Hall Beach,68.776111,-81.243611
Rouyn,48.206111,-78.835556
La Ronge,55.15139,-105.261944
Vermillion,53.355833,-110.82389
Broughton Island,67.545833,-64.031389
Val D'or,48.053333,-77.782778
Quujjuaq,58.096111,-68.426944
Norman Wells,65.281617,-126.798219
Vancouver,49.193889,-123.184444
Buffalo Narrows,55.841944,-108.4175
Wiarton,44.745834,-81.107222
Petawawa,45.952221,-77.319168
Winnipeg,49.910036,-97.239886
Wabush,52.921944,-66.864444
Williams Lake,52.183056,-122.054167
Wrigley,63.209444,-123.436667
Cranbrook,49.612222,-115.781944
Edmonton,53.5725,-113.520556
Saskatoon,52.170834,-106.699722
Medicine Hat,50.01889,-110.720833
Fort Saint John,56.238056,-120.740278
Sioux Lookout,50.113889,-91.905278
Pangnirtung,66145,-65.713611
Earlton,47695,-79.848889
Prince George,53.889444,-122.678889
Terrace,54.468508,-128.576219
London,43.033056,-81.151111
Abbotsford,49.025278,-122.360556
Whitehorse,60.709553,-135.067269
North Bay,46.363611,-79.422778
Calgary,51.113888,-114.020278
Smithers,54.824722,-127.182778
Fort Nelson,58.836389,-122.596944
Penticton,49.463056,-119.602222
Charlottetown,46.290001,-63.121111
Spence Bay,69.546667,-93.576667
Victoria,48.646944,-123.425833
Lynn Lake,56.863888,-101.07611
Swift Current,50.291944,-107.690556
Churchill,58.739167,-94065
Goose Bay,53.319168,-60.425833
St. John's,47.61861,-52.751945
Kapuskasing,49.413889,-82.4675
Armstrong,50.290279,-88.909721
Mont Joli,48.608612,-68.208056
Toronto,43.677223,-79.630556
Toronto,43.7425,-79.465556
Gore Bay,45.885277,-82.567778
Yellowknife,62.462778,-114.440278
Slave Lake,55.293056,-114.777222
Sandspit,53.254333,-131.813833
Sarnia,42.999444,-82.308889
Port Hardy,50.680556,-127.366667
Whitecourt,54.14389,-115.786667
Sept-iles,50.223333,-66.265556
Teslin,60.172779,-132.742778
Greenwood,44.984444,-64.916944
Faro,62.2075,-133.375833
Fort Mcpherson,67.4075,-134.860556
Blida,36.503613,2.814167
Bou Saada,35.3325,4.206389
Bejaja,36.711997,5.069922
Algier,36.691014,3.215408
Djanet,24.292767,9.452444
Boufarik,36.545834,2.876111
Reggan,26.710103,0.285647
Illizi,26.723536,8.622653
Ain Oussera,35.525414,2.878714
Tamanrasset,22.811461,5.451075
Jijel,36.795136,5.873608
Mecheria,33.535853,-0.242353
Relizane,35.752239,0.626272
Annaba,36.822225,7.809167
Constantine,36.276028,6.620386
Tebessa,35.431611,8.120717
Tilrempt,32.930431,3.311542
Tiaret,35.341136,1.463147
Bou Sfer,35.735389,-0.805389
Tindouf,27.700372,-8.167103
Ech-cheliff,36.212658,1.331775
Oran,35.542444,-0.532278
Tlemcen,35.016667,-1.45
Oran,35.623858,-0.621183
Sidi Bel Abbes,35.171775,-0.593275
Ghriss,35.207725,0.147142
Adrar,27.837589,-0.186414
Biskra,34.793289,5.738231
El Golea,30.571294,2.859586
Ghardaia,32.384106,3.794114
Hassi Messaoud,31.672972,6.140444
In Salah,27.251022,2.512017
Touggourt,33.067803,6.088672
Laghouat,33.764383,2.928344
Timimoun,29.237119,0.276033
Ouargla,31.917223,5.412778
Zarzaitine,28.05155,9.642911
Cotonou,6.357228,2.384353
Ouagadougou,12.353194,-1.512417
Bobo-dioulasso,11.160056,-4.330969
Accra,5.605186,-0.166786
Tamale,9.557192,-0.863214
Wa,10.082664,-2.507694
Sunyani,7.361828,-2.328756
Takoradi,4.896056,-1.774756
Abidjan,5.261386,-3.926294
Bouake,7.7388,-5.073667
Daloa,6.792808,-6.473189
Korhogo,9.387183,-5.556664
Man,7.272069,-7.587364
San Pedro,4.746717,-6.660817
Yamoussoukro,6.903167,-5.365581
Abuja,9.006792,7.263172
Akure,7.246739,5.301008
Benin,6.316981,5.599503
Calabar,4.976019,8.347197
Enugu,6.474272,7.561961
Gusau,12.171667,6.696111
Ibadan,7.362458,3.978333
Ilorin,8.440211,4.493919
Jos,9.639828,8.86905
Kaduna,10.696025,7.320114
Kano,12.047589,8.524622
Maiduguri,11.855347,13.08095
Makurdi,7.703883,8.613939
Lagos,6.577369,3.321156
Minna,9.652172,6.462256
Port Hartcourt,5.015494,6.949594
Sokoto,12.916322,5.207189
Yola,9.257553,12.430422
Zaria,11.130192,7.685806
Maradi,13.502531,7.126753
Niamey,13.481547,2.183614
Tahoua,14.875658,5.265358
Agadez,16.965997,8.000114
Dirkou,18.968703,12.86865
Diffa,13.372894,12.626686
Zinder,13.778997,8.983761
Monastir,35.758056,10.754722
Tunis,36.851033,10.227217
Bizerte,37.245447,9.791453
Remada,32.306156,10.382108
Gafsa,34.422022,8.822503
Gabes,33.876919,10.103333
Bordj El Amri,36.721339,9.943147
Djerba,33.875031,10.775461
El Borma,31.704281,9.254619
Sfax,34.717953,10.690972
Tozeur,33.939722,8.110556
Niatougou,9.767333,1.09125
Lome,6.165611,1.254511
Antwerp,51.189444,4.460278
Beauvechain,50.75861,4.768333
Kleine Brogel,51.168333,5.47
Brussels,50.901389,4.484444
Bertrix,49.891667,5.223889
Charleroi,50.459197,4.453817
Chievres,50.575833,3831
Koksijde,51.090278,2.652778
Florennes,50.243333,4.645833
Kortrijk-vevelgem,50.817222,3.204722
Liege,50.637417,5.443222
Ostend,51.198889,2.862222
Zutendaal,50.9475,5.590556
Sint-truiden,50.791944,5.201667
St.-hubert,50.035833,5.404167
Ursel,51.144133,3.474361
Weelde,51.394783,4.960194
Zoersel,51.264722,4.753333
Bautzen,51.193531,14.519747
Altenburg,50.981817,12.506361
Dessau,51.831828,12.184033
Eisenhuettenstadt,52.197333,14.585667
Greencastle,39.6335556,-86.8138056
Suhl,51.308111,13.554973
Muehlhausen,51363,11.940833
Halle,51552,12.052667
Riesa,51.2935,13356
Rechlin-laerz,53.306417,12.753139
Strausberg,52.579978,13.915683
Schoenhagen,52.203258,13.158408
Barth,54.33754,12.699705
Jena,50.915161,11.714519
Kyritz,52.918833,12.425333
Magdeburg,52.073658,11.626467
Rothenburg/ol,51.363167,14.95
Anklam,53.8327,13.669131
Cottbus,51.889475,14.531986
Kamenz,51.29625,14129
Berlin,52.380001,13.5225
Dresden,51.132767,13.767161
Erfurt,50.979811,10.958106
Frankfurt,50.026421,8.543125
Munster,52.134642,7.684831
Hamburg,53.630389,9.988228
Berlin,52.473025,13.403944
Cologne,50.865917,7.142744
Duesseldorf,51.289453,6.766775
Munich,48.353783,11.786086
Nuernberg,49.4987,11.066897
Leipzig,51.432447,12.241633
Saarbruecken,49.214553,7.109508
Stuttgart,48.689878,9.221964
Berlin,52.559686,13.287711
Hannover,52.461056,9.685078
Bremen,53.0475,8.786667
Egelsbach,49.960833,8.6415
Hahn,49.948672,7.263892
Mannheim,49.472706,8.514264
Allendorf,51.034878,8.680839
Worms,49.606511,8.3684
Mainz,49.968931,8.148336
Eisenach,50.992797,10.472711
Siegerland,50.707658,8.082969
Hamburg,53.535886,9.837025
Kiel,54.3795,10.145167
Luebeck,53.805367,10.719222
Dahlemer Binz,50.405888,6.528083
Meinerzhagen,51.099445,7.601944
Arnsberg,51.483333,7.899333
Essen,51.402333,6.937333
Bielefeld,51.964833,8.544833
Moenchengladbach,51.230356,6.504494
Paderborn,51.614089,8.616317
Stadtlohn,51.995844,6.840667
Dortmund,51.518314,7.612242
Augsburg,48.425158,10.931764
Biberach,48111,9.762833
Eggenfelden,48.396167,12.723667
Mindelheim,48.108833,10.524333
Oberpfaffenhofen,48.081364,11.283067
Straubing,48.90095,12.518186
Vilshofen,48.635167,13.195667
Leutkirch,47.859117,10.014572
Friedrichshafen,47.671317,9.511486
Parchim,53.426997,11.783436
Stendal,52.627778,11.818333
Aalen-heidenheim,48.777833,10.264667
Bayreuth,49.984428,11.638569
Burg Feuerstein,49.793833,11.133167
Hof,50.288836,11.854919
Hassfurt,50018,10.5295
Koblenz,50.3255,7.528667
Trier,49.8635,6.788167
Speyer,49.302776,8.451195
Zweibruecken,49.209525,7.400647
Donaueschingen,47.973331,8.522223
Freiburg,48.022653,7.832583
Mengen,48.053833,9.372833
Schwaebisch Hall,49.118317,9.783956
Soest,51.6075,13738
Braunschweig,52.319167,10.556111
Kassel,51.408394,9.377631
Hildesheim,52.179833,9.945667
Bremerhaven,53.507081,8.572878
Emden,53.391186,7.227408
Leer,53.271592,7.442344
Wilhelmshaven,53.504833,8.053333
Borkum,53.5955,6.709167
Norderney,53.706822,7.230247
Flensburg,54.771772,9.378214
Rendsburg,54.220928,9.600803
Westerland,54.91325,8.340472
Armari Air Force Base,59.260286,24.208467
Kardla,58.990756,22.830733
Kuressaare,58.229883,22.509494
Parnu,58.419044,24.472819
Tallinn-ulemiste International,59.413317,24.832844
Tartu,58.307461,26.690428
Enontekio,68.362586,23.424322
Eura,61.116112,22.201389
Halli,61.85605,24.7866
Helsinki,60.254558,25.042828
Helsinki,60.317222,24.963333
Hameenkyro,61.689656,23.073744
Hanko,59.848864,23.083583
Hyvinkaa,60.654444,24.881111
Kikala,60.462502,23.6525
Immola,61.249172,28.903711
Kitee,62.166111,30.073611
Ivalo,68.607269,27.405328
Joensuu,62.662906,29.60755
Jyvaskyla,62.399453,25.678253
Kauhava,63.127078,23.051442
Kemi,65.781889,24.5991
Kajaani,64.285472,27.692414
Kauhajoki,62.462502,22.393055
Kruunupyy,63.721172,23.143131
Kemijarvi,66.712883,27.156786
Kuusamo,65.987575,29.239381
Kittila,67.701022,24.84685
Kuopio,63.00715,27.797756
Vesivehmaa,61.144158,25.693508
Lappeenranta,61.044553,28.144397
Mariehamn,60.122203,19.898156
Menkijarvi,62.946667,23.518889
Mikkeli,61.6866,27.201794
Nummela,60.333889,24.296389
Oulu,64.930061,25.354564
Piikajarvi,61.245558,22.193356
Pori,61.461686,21.799983
Pudasjarvi,65.402222,26.946944
Pyhasalmi,63.731917,25.926306
Pattijoki,64.688056,24.695833
Rantasalmi,62.065481,28.356494
Rovaniemi,66.564822,25.830411
Rayskala,60.744722,24.107778
Savonlinna,61.943064,28.945136
Selanpaa,61.062389,26.798861
Sodankyla,67.395033,26.619133
Tampere,61.414147,23.604392
Teisko,61.77335,24.027006
Turku,60.514142,22.262808
Utti,60.896394,26.938353
Vaasa,63.05065,21.762175
Varkaus,62.171111,27.868611
Ylivieska-raudaskyla,64.060547,24.715953
Belfast,54.6575,-6.215833
Enniskillen,54.398889,-7.651667
Belfast,54.618056,-5.8725
Londonderry,55.042778,-7.161111
Birmingham,52.453856,-1.748028
Coventry,52.369722,-1.479722
Leicester,52.607778,-1.031944
Golouchestershire,51.894167,-2.167222
Halfpenny Green,52.5175,-2.259444
Pailton,51.668056,-2.056944
Turweston,52.040833,-1.095556
Wellesbourne,52.192222,-1.614444
Manchester,53.353744,-2.27495
Woodfort,53.338056,-2.148889
Chivenor,51.087167,-4.150339
Newquai,50.440558,-4.995408
Lyneham,51.505144,-1.993428
Boscombe Down,51.152189,-1.747414
Culdrose,50.086092,-5.255711
St. Athan,51.404811,-3.43575
Yeovilton,51.009358,-2.638819
Haverfordwest,51.833056,-4.961111
Cardiff,51.396667,-3.343333
Swansea,51.605333,-4.067833
Bristol,51.382669,-2.719089
Liverpool,53.333611,-2.849722
London,51.874722,-0.368333
Plymouth,50.422778,-4.105833
Bournemouth,50.78,-1.8425
Southampton,50.950261,-1.356803
Lasham,51.187167,-1.0335
Alderney,49.706111,-2.214722
Guernsey,49.434956,-2.601969
Jersey,49.207947,-2.195508
Shoreham By Sea,50.835556,-0.297222
Biggin Hill,51.330833,0.0325
London,51.148056,-0.190278
London,51.505278,0.055278
Farnborough,51.275833,-0.776333
Chalsgrove,51.676111,-1.080833
Blackbushe,51.323889,-0.8475
London,51.4775,-0.461389
Southend,51.571389,0.695556
Lydd,50.956111,0.939167
Manston,51.342222,1.346111
Brough,53.719667,-0.566333
Carlisle,54.9375,-2.809167
Repton,53.280556,-0.951389
Blackpool,53.771667,-3.028611
Humberside,53.574444,-0.350833
Barrow Island,54.131167,-3.263667
Leeds,53.865897,-1.660569
Warton,53.745097,-2.883061
Hawarden,53.178056,-2.977778
Isle Of Man,54.083333,-4.623889
Newcastle,55.0375,-1.691667
Teesside,54.509189,-1.429406
East Midlands,52.831111,-1.328056
Llanbedr,52.811744,-4.123575
Ternhill,52.871164,-2.533561
Shawbury,52.798169,-2.668042
Woodvale,53.581575,-3.055522
Kirkwall,58.957778,-2905
Sumburgh,59.878889,-1.295556
Wick,58.458889,-3.093056
Aberdeen,57.201944,-2.197778
Inverness,57.5425,-4.0475
Glasgow,55.871944,-4.433056
Edinburgh,55.95,-3.3725
Islay,55.681944,-6.256667
Prestwick,55.509444,-4.586667
Benbecula,57.481111,-7.362778
Scatsta,60.432778,-1.296111
Dundee,56.452499,-3.025833
Stornoway,58.215556,-6.331111
Tiree,56.499167,-6.869167
Leuchars,56.372889,-2.868444
Lossiemouth,57.705214,-3.339169
Cambridge,52205,175
Peterborough,52.468056,-0.251111
Norwich,52.675833,1.282778
London,51885,235
North Weald,51.721667,0.154167
Fowlmere,53.394256,-1.388486
Cranfield,52.072222,-0.616667
Exeter,50.734444,-3.413889
Bristol,51.519444,-2.590833
Oxford,51.836944,-1.32
Benson,51.616389,-1.095833
Lakenheath,52.409333,561
Mildenhall,52.361933,0.486406
Wattisham,52.127283,0.956264
Wyton,52.357167,-0.107833
Fairford,51.682167,-1.790028
Brize Norton,51.749964,-1.583617
Odiham,51.234139,-0.942825
Cosford,52.640028,-2.305578
Northolt,51553,-0.418167
Coningsby,53.093014,-0.166014
Dishforth,54.137186,-1.420253
Leeming,54.292383,-1.5354
Church Fenton,53.834333,-1.1955
Honington,52.342611,0.772939
Cottesmore,52.735711,-0.648769
Scampton,53.307778,-0.550833
Wittering,52.612558,-0.476453
Linton-on-ouse,54.048911,-1.252747
Waddington,53.166167,-0.523811
Topcliffe,54.205522,-1.382094
Cranwell,53.03035,-0.483242
Barkston Heath,52.962225,-0.561625
Marham,52.648353,0.550692
Mount Pleasant,-51.822777,-58.447222
Amsterdam,52.308613,4.763889
Weert,51.25528,5.601389
Maastricht,50.911658,5.770144
Deelen,52.060556,5.873056
Drachten,53.119167,6.129722
Eindhoven,51.450139,5.374528
Groningen,53.11972,6.579444
Gilze-rijen,51.567389,4.931833
De Kooy,52.923353,4.780625
Lelystad,52.460278,5.527222
Leeuwarden,53.228611,5.760556
Rotterdam,51.956944,4.437222
Soesterberg,52.1273,5.27619
Enschede,52.27,6.874167
Valkenburg,52.166139,4.417944
Woensdrecht,51.449092,4.342031
Cork,51.841269,-8.491111
Galway,53.300175,-8.941592
Dublin,53.421333,-6.270075
Connaught,53.910297,-8.818492
Kerry,52.180878,-9.523783
Casement,53.301667,-6.451333
Shannon,52.701978,-8.924817
Sligo,54.280214,-8.599206
Waterford,52.1872,-7.086964
Aarhus,56.300017,10.619008
Billund,55.740322,9.151778
Copenhagen,55.617917,12.655972
Esbjerg,55.525942,8.553403
Gronholt,55.941387,12.382222
Karup,56.297458,9.124628
Laeso,57.277228,11.000083
Maribo,54.699344,11.440117
Odense,55.476664,10.330933
Krusa-padborg,54.870306,9.279014
Copenhagen,55.585567,12.131428
Ronne,55.063267,14.759558
Soenderborg,54.964367,9.791731
Skrydstrup,55.225553,9.263931
Skive,56.550208,9.172983
Thisted,57.0688,8.705225
Kolding,55.436283,9.330925
Vagar,62.063628,-7.277219
Vesthimmerland,56.846944,9.458611
Stauning,55.990122,8.353906
Aalborg,57.092789,9.849164
Luxemburg,49.626575,6.211517
Alesund,62.560372,6.110164
Andoya,69.2925,16.144167
Alta,69.976111,23.371667
Voss,60.63885,6.501497
Bronnoysund,65.461111,12.2175
Bodo,67.269167,14.365278
Bergen,60.293386,5.218142
Batsfjord,70.600278,29.6925
Kristiansand,58.204214,8.085369
Geilo,60.416667,8.512778
Bardufoss,69.055758,18.540356
Harstad/Narvik,68.4913,16.678108
Fagernes,61.015556,9.288056
Floro,61.583611,5.024722
Oslo,60.193917,11.100361
Haugesund,59.345267,5.208364
Hasvik,70.486675,22.139744
Kristiansund,63.111781,7.824522
Kjeller,59.969336,11.036089
Kirkenes,69.725781,29.891295
Farsund,58.099486,6.62605
Molde,62.744722,7.2625
Mosjoen,65.783997,13.214914
Lakselv,70.068814,24.973489
Notodden,59.565683,9.212222
Orland,63.698908,9.604003
Roros,62.578411,11.342347
Rygge,59.378933,10.785389
Svalbard,78.246111,15.465556
Skien,59185,9.566944
Stord,59.791925,5.34085
Sandnessjoen,65.956828,12.468944
Tromso,69.683333,18.918919
Sandefjord,59.186703,10.258628
Trondheim,63.457556,10.92425
Stavanger,58.876778,5.637856
Warsaw,52.268494,20.911047
Gdansk,54.377569,18.466222
Krakow,50.077731,19.784836
Katowice,50.238147,19.034181
Katowice,50.474253,19.080019
Mielec,50.322275,21.462131
Poznan,52.421031,16.826325
Rzeszow,50.109958,22019
Szczecin,53.584731,14.902206
Slupsk,54.478889,17.1075
Shapaja,53.790639,15.82625
Warsaw,52.16575,20.967122
Wroclaw,51.102683,16.885836
Zielona Gora,52.138517,15.798556
Linkoeping,58.402278,15.525683
Norrkoeping,58.610867,16.103592
Uppsala,59.897328,17.588581
Ronneby,56.266667,15265
Rada,58.498136,13.053231
Gothenborg,57.662836,12.279819
Joenkoeping,57.757594,14.068731
Falkoping,58.169794,13.587847
Lidkoping,58.465522,13.174414
Gothenborg,57.774722,11.870372
Skovde,58.4564,13.972672
Trollhattan,58.318056,12345
Karlsborg,58.513842,14.507119
Satenas,58.426445,12.714389
Stockholm,59.418694,17.890694
Karlskoga,59.345867,14.495922
Mora,60.957908,14.511383
Stockholm,58.788636,16.912189
Arvika,59.675856,12.639442
Emmaboda,56.610761,15.604761
Ljungby,56.950278,13.921667
Kristianstad,55.921686,14.085536
Landskrona,55.944444,12.869444
Oskarshamn,57.350453,16.497972
Anderstorp,57.264167,13.599439
Kalkmar,56.685531,16.287578
Malmoe,55.530193,13.371639
Halmstad,56.691128,12.820211
Hagshult,57.292222,14.137222
Vaxjo,56.929144,14.727994
Hallviken,63.738333,15.458333
Hede,62.408889,13.747222
Sveg,62.047811,14.42295
Gallivare,67.132408,20.814636
Hudiksvall,61.768092,17.080719
Jokkmokk,66.496236,20.147181
Kramfors,63.048597,17.768856
Lycksele,64.548322,18.716219
Optand,63.128611,14.802778
Sundsvall,62.528125,17.443928
Ornskoldsvik,63.408339,18.990039
Pitea,65.398333,21.260833
Kiruna,67.821986,20.336764
Orsa,61.190033,14.712567
Skelleftea,64.624772,21.076892
Sattna,62.481369,17.002917
Umea,63.791828,20.282758
Vilhelmina,64.579083,16.833575
Arvidsjaur,65.590278,19.281944
Orebro,59.223733,15.037956
Vasteras,59.589444,16.633611
Lulea,65.543758,22.121989
Vidsel,65.875325,20.149917
Arboga,59.386585,15.924055
Stockholm,59.651944,17.918611
Stockholm,59.354372,17.94165
Borlange,60.422017,15.515211
Hultsfred,57.525833,15.823333
Gavle,60.593333,16.951389
Linkoeping,58.40615,15.680508
Norrkoeping,58.586253,16.250622
Eskilstuna,59.351078,16.7084
Visby,57.662797,18.346211
Kalixfors,67.764789,20.257228
Spangdahlem,49.972667,6.6925
Ramstein,49.436911,7.600283
Bamberg,49.920433,10.914233
Giebelstadt,49.648131,9.966494
Brueckeburg,52.2785,9.082167
Celle,52.5912,10.022133
Rheine-brentlange,52.291167,7387
Fritzlar,51.1145,9.285833
Laupheim,48.220297,9.910019
Mendig,50366,7.315333
Niederstetten,49.391833,9.958167
Roth,49.2175,11.100167
Fassberg,52.919406,10.197528
Grafenwoehr,49.698686,11.940175
Hanau,50.169189,8.961586
Hohenfels,49.218056,11.836111
Kitzingen,49.743057,10.200556
Nordholz,53.767667,8.6585
Diepholz,52.585514,8.341014
Geilenkirchen,50.960817,6.042422
Hohn,54.312167,9.538167
Jever,53.5335,7.888667
Laage,53.918167,12.278333
Noervenich,50.831167,6.658167
Schleswig,54.459333,9.516333
Wittmundhafen,53.547833,7.667333
Neubrandenburg,53.602167,13306
Wunstorf,52.457333,9.427167
Vilseck,49.63361,11.767222
Coleman,49.563569,8.463392
Wiesbaden,50.049819,8.325397
Landsberg,48.0705,10906
Buechel,50.173833,7.063333
Erding,48.322333,11.948667
Fuerstenfeldbruck,48.205667,11267
Holzdorf,51.767833,13.167667
Ingolstadt,48.715667,11534
Lechfeld,48.1855,10.861167
Neuburg,48711,11.2115
Guetersloh,51.922833,8.306333
Alexander Bay,-28.575001,16.533333
Aggeneys,-29.281767,18.813869
Brakpan,-26.23865,28.301769
Bisho,-32.89715,27.279111
Bloemfontein,-29.092722,26.302444
Bethlehem,-28.248392,28.336125
Bothaville,-27.366769,26.629194
Cape Town,-33.964806,18.601667
Calvinia,-31.500278,19.725897
Durban,-29.970089,30.950519
East London,-33.035569,27.825939
Ermelo,-26.495644,29.979764
Ficksburg,-28.823119,27.9089
Johannesburg,-25.986267,28.140061
George,-34.005553,22.378889
Graaff Reinet,-32.193611,24.541389
Grahamstown,-33.284721,26.498083
Greytown,-29.122011,30.586706
Harmony,-28.078694,26.861178
Harrismith,-28.235072,29.106206
Hoedspruit,-24.368642,31.048744
Hendrik Verwoerddam,-30.562164,25.528286
Johannesburg,-26.139166,28246
Klerksdorp,-26.871064,26.718003
Kimberley,-28.802834,24.765167
Krugersdorp,-26.080978,27.725667
Kroonstad,-27.660617,27.315761
Kuruman,-27.456667,23.411388
Kleinsee,-29.688403,17.094006
Johannesburg,-25.938514,27.926133
Lichtenburg,-26.175672,26.184575
Lambertsbaai,-23.159911,29.696544
Langebaanweg,-32.968889,18.160278
Ladysmith,-28.581667,29.749722
Middelburg,-25.684775,29.440158
Margate,-30.857408,30.343019
Marble Hall,-24.989114,29.283122
Majuba Power Station,-27.079253,29.778528
Kangia,69.2225,-49.9383
Malalane,-25.473603,31.565828
Musina,-25.704458,26.908978
Mkuze,-27.626086,32.044275
Newcastle,-27.770586,29.976894
Nylstroom,-24.686056,28.434944
Overberg,-34.554861,20.250681
Oudtshoorn,-33.606967,22.188978
Port Elizabeth,-33.984919,25.617275
Plettenberg Bay,-34.090279,23.327778
Phalaborwa,-23.937166,31.15539
Polokwane,-23.926089,29.484422
Port Saint Johns,-31.605886,29.519786
Pietermaritzburg,-29.648975,30.398667
Pilanesberg,-25.333822,27.173358
Potgietersrus,-23.845306,29.458611
Potchefstroom,-26.670994,27.0819
Parys,-26.889344,27.503417
Queenstown,-31.920197,26.882206
Richard's Bay,-28.741039,32.092111
Rustenburg,-25.6443,27.271119
Robertson,-33.812181,19.902828
Springbok,-29.689333,17.939611
Secunda,-26.524083,29.170144
Saldanha,-32.964067,17.969331
Springs,-26.248411,28.397508
Swartkop,-25.809717,28.164631
Sishen,-27.648606,22.999278
Swellendam,-34.048222,20.474611
Skukuza,-24.960944,31.588731
Tommy's Field,-28.260028,22.993178
Bloemfontein,-29.032928,26.157564
Tutuka,-26.776556,29.338778
Tzaneen,-23.824417,30.329306
Ulundi,-28.320586,31.416519
Upington,-28.399097,21.260239
Umtata,-31.547903,28.674289
Vryburg,-26.982408,24.728756
Durban,-29.770606,31.058406
Vredendal,-31.640961,18.544789
Vereeniging,-26.566372,27.960756
Pretoria,-25.653858,28.224231
Witbank,-25.832294,29.192019
Waterkloof,-25.83,28.2225
Welkom,-27998,26.669586
Ysterplaat,-33.900244,18.498297
Zeerust,-25.598972,26.042333
Francistown,-21.159597,27.474525
Jwaneng,-24.602333,24.690971
Kasane,-17.832875,25.1624
Maun,-19.972564,23.431086
Gaberone,-24.555225,25.918208
Selebi-phikwe,-22.05835,27.828767
Brazzaville,-4.2517,15.253031
Owando,-0.53135,15.950094
Ouesso,1.615994,16.037917
Pointe-noire,-4.816028,11.886597
Manzini,-26.529022,31.307519
Bangui,4.398475,18.518786
Berberati,4.221583,15.786369
Bata,1.905469,9.805681
Malabo,3.755267,8.708717
Wide Awake,-7.969597,-14.393664
Plaisance,-20.430235,57.6836
Rodriguez Island,-19.757658,63.360983
Diego Garcia Island,-7.313267,72.411089
Tiko,4.089192,9.360528
Douala,4.006081,9.719481
Maroua,10.451392,14.257361
Foumban,5.636919,10.750817
N'gaoundere,7.357011,13.559242
Garoua,9.335892,13.370103
Bafoussam,5.536919,10.354583
Bamenda,6.039239,10.122639
Yaounde,3.836039,11.523461
Kasompe,-12.572778,27.89395
Livingstone,-17.821756,25.822692
Lusaka,-15.330817,28.452628
Mfuwe,-13.258878,31.936581
Mongu,-15.254542,23.162306
Ndola,-12.998139,28.664944
Southdowns,-12.900469,28.149858
Moroni,-11.533661,43.27185
Moheli,-12.298108,43.7664
Anjouan,-12.131667,44.430279
Dzaoudzi,-12.804722,45.281113
St.-denis,-20.8871,55.510308
St.-pierre,-21.320039,55.423581
Antananarivo,-18.79695,47.478806
Miandrivazo,-19.562778,45.450832
Sainte Marie,-17.093889,49.815834
Toamasina,-18.109517,49.392536
Morondava,-20.28475,44.317614
Antsiranana,-12.3494,49.291747
Mananara,-16.1639,49.773753
Andapa,-14.651667,49.620556
Ambilobe,-13.188431,48.987978
Antalaha,-14.999411,50.320233
Analalava,-14.629694,47.763783
Mahajanga,-15.667144,46.351828
Nosy-be,-13.312067,48.314822
Besalampy,-16.741945,44.481388
Maroantsetra,-15.436666,49.688332
Sambava,-14.278611,50.174721
Vohemar,-13.375834,50.002777
Antsohihy,-14.89875,47.993894
Ampampamena,-13.484814,48.632739
Tolagnaro,-25.038056,46.956111
Fianarantsoa,-21.441558,47.111736
Farafangana,-22.805286,47.820614
Manakara,-22.119722,48.021667
Mananjary,-21.201772,48.358317
Morombe,-21.753867,43.375533
Toliara,-23.383369,43.728453
M'banza-congo,-6.269897,14.247025
Benguela,-12.609025,13.403711
Cabinda,-5.596992,12.188353
Culebra Island,18.3127,-65.3034
Huambo,-12.808878,15.760547
Kuito,-12.404633,16.947414
Lobito,-12.371233,13.536625
Luanda,-8.858375,13.231178
Malanje,-9.525086,16.312406
Menongue,-14.657583,17.719833
Negage,-7.754506,15.287728
Porto Amboim,-10.721956,13.765528
Saurimo,-9.689067,20.431875
Soyo,-6.141086,12.371764
Lubango,-14.924733,13.575022
Luena,-11.768086,19.897672
Uige,-7.603067,15.027822
Xangongo,-16.755417,14.965344
Oyem,1.543108,11.581361
Okondja,-0.665214,13.673133
Lambarene,-0.704389,10.245722
Bitam,2.075639,11.493195
Port Gentil,-0.711739,8.754383
Omboue Hospial,-1.574733,9.262694
Makokou,0.579211,12.890908
Libreville,0.4586,9.412283
Franceville,-1.656156,13.438036
Principe,1.662936,7.411742
Sao Tome,0.378175,6.712153
Beira,-19.796419,34.907556
Inhambane,-23.876431,35.408544
Lichinga,-13.273986,35.266262
Lumbo,-15.033058,40.671728
Maputo,-25.920836,32.572606
Mueda,-11.672922,39.563142
Mocimboa Da Praia,-11.361789,40.354875
Marrupa,-13.225053,37.552067
Nacala,-14.488233,40.71225
Nampula,-15.105611,39.2818
Pemba,-12.986753,40.522492
Quelimane,-17.8555,36.869106
Songo,-15.602694,32.773189
Tete,-16.104817,33.640181
Ulongwe,-14.704617,34.352369
Vilankulu,-22.018431,35.313297
Alphonse,-7.004783,52.726247
Desroches,-5.696697,53.655844
Farquhar,-10.109611,51.176119
Mahe,-4.674342,55.521839
Praslin,-4.319292,55.691417
Coetivy,-7.134567,56.278239
Abeche,13847,20.844333
Moundou,8.624406,16.071419
N'djamena,12.133689,15.034019
Faya-largeau,17.917053,19.111078
Bulawayo,-20.017431,28.617869
Harare,-17.751561,30.924706
Chiredzi,-21.008083,31.57855
Victoria Falls,-18.095881,25.839006
Harare,-17.931806,31.092847
Kariba,-16.519761,28.884981
Mutoko,-17.431917,32.184502
Mutare,-18.997499,32.627224
Masvingo,-20.055333,30.859111
Zvishavane,-20.289497,30.088228
Gwert,-19.436394,29.861911
Hwange National Park,-18.629872,27.021042
Blantyre,-15.679053,34.974014
Karonga,-9.953569,33.893022
Kasungu,-13.014631,33.468597
Lilongwe,-13.789378,33781
Mzuzu,-11.44475,34.011776
Maseru,-29.462256,27.552503
Maseru,-29.304053,27.503458
Kinshasa,-4.38575,15.444569
Kinshasa,-4.326689,15.327342
Muanda,-5.930858,12.351789
Kitona Base,-5.918056,12.447694
Bandoundu,-3.311319,17.381683
Kikwit,-5.035767,18.785631
Mbandaka,0.0226,18.288744
Gbadolite,4.253206,20.975283
Gemena,3.235369,19.771258
Kotakoli,4.157639,21.650917
Lisala,2.170658,21.496906
Kisangani,0.5175,25.155014
Isiro,2.827606,27.588253
Bunia,1.565719,30.220833
Buta Zega,2.818347,24.793706
Bukavu/kavumu,-2.308978,28.808803
Goma,-1.670814,29.238464
Kindu,-2.919178,25.915361
Lubumashi,-11.591333,27.530889
Kolwezi,-10.765886,25.505714
Kalemie,-5.875556,29.25
Kamina Base,-8.642025,25.252897
Kananga,-5.900055,22.469166
Mbuji-mayi,-6.121236,23.569008
Bamako,12.533544,-7.949944
Gao,16.248433,-0.005456
Kayes,14.481233,-11.404397
Mopti,14.512803,-4.079561
Tombouctou,16.730458,-3.007583
Tessalit,20.242983,0.977308
Banjul,13.337961,-16.652206
Fuerteventura,28.452717,-13.863761
Hierro,27.814847,-17.887056
Santa Cruz De La Palma,28.626478,-17.755611
Gran Canaria,27.931886,-15.386586
Las Palmas,28.945464,-13.605225
Tenerife,28.044475,-16.572489
Tenerife,28.482653,-16.341536
Melilla,35.279817,-2.956256
Freetown,8.616444,-13.195489
Cufar,11.287917,-15.1805
Monrovia,6.289061,-10.758722
Monrovia,6.233789,-10.362311
Agadir,30.381353,-9.546311
Tan Tan,28.448194,-11.161347
Fes,33.927261,-4.977958
Ifrane,33.505319,-5.152903
Er-rachidia,31.9475,-4.398333
Meknes,33.879067,-5.515125
Oujda,34.78715,-1.923986
Ben Slimane,33.655422,-7.22145
Rabat,34.051467,-6.751519
Casablanca,33.367467,-7.589967
Marrakech,31.606886,-8.0363
Kentira,34.298864,-6.595878
Ouarzazate,30.939053,-6.909431
Al Hociema,35.177103,-3.839525
Tetouan,35.594333,-5.320019
Tanger,35.726917,-5.916889
Ziguinchor,12.555617,-16.281783
Cap Skiring,12.4102,-16.746125
Kaolack,14.146881,-16.051297
Dakar,14.739708,-17.490225
St. Louis,16.050761,-16.463172
Bakel,14.847256,-12.468264
Kedougou,12.572292,-12.220333
Tambacounda,13.736817,-13.653122
Aioun El Atrouss,16.711294,-9.637883
Tidjikja,18.570103,-11.423547
Kiffa,16.589983,-11.406208
Nema,16622,-7.316567
Kaedi,16.159547,-13.507617
Nouakschott,18.097856,-15.947956
Selibabi,15.179692,-12.207272
Atar,20.506828,-13.043194
Nouadhibou,20.933067,-17.029956
Bir Moghrein,25.236697,-11.588697
Fira,10.350556,-13.569167
Faranah,10.035467,-10.769825
Labe,11.326058,-12.28685
Amilcar Cabral,16.741389,-22.949444
Boa Vista,16.136531,-22.888897
Maio,15.155928,-23.213703
Sao Nocolau Island,16.588356,-24.284656
Sao Vicente Island,16.833689,-25.054661
Addis Ababa,8.977889,38.799319
Addis Ababa,9.003681,38.726019
Arba Minch,6.039389,37.590453
Axum,14.14675,38.772833
Bahar Dar,11.608075,37.321644
Dire Dawa,9.6247,41.854203
Gambella,8.128764,34.563131
Gondar,12.5199,37.434047
Paradies Island,3.4833,72.8369
Jimma,7.666094,36.816639
Lalibella,11.975014,38.979969
Makale,13.467367,39.533464
Asosa,10.01855,34.586253
Bujumbura,-3.324019,29.318519
Hargeisa,9.518167,44.088758
Berbera,10.389167,44.941106
Kismayu,-0.377353,42.459233
Dowagiac,41.9929342,-86.1280125
Alexandria,31.183903,29.948889
Abu Simbel,22.375953,31.611722
Cairo,30.121944,31.405556
Cairo,30.116362,30.915445
Hurghada,27.178317,33.799436
El Gorah,31.068975,34.129194
Luxor,25.671028,32.706583
Mersa-matruh,31.325356,27.221689
Port Said,31.279444,32.24
St. Catherine,28.685278,34.0625
Aswan,23.964356,32.819975
El-tor,28.209028,33.645517
Eldoret,0.404458,35.238928
Kakamega,0.271342,34.787297
Kisumu,-0.086139,34.728892
Kitale,0.971989,34.958556
Cambridge,39.9750278,-81.5775833
Lodwar,3.121967,35.608692
Lamu,-2.252417,40.913097
Mombasa,-4.034833,39.59425
Naivasha,-0.787953,36.433528
Nairobi,-1.321719,36.814833
Nairobi,-1.277267,36.862339
Wajir,1.733239,40.091606
Buattifel,28.795372,22.080939
Giallo,28.638458,21.438042
Ghat,25.145564,10.142647
Kufra,24.178728,23.313958
Benghazi,32.096786,20.269472
Sebha,26.986964,14.472525
Tripoli,32.663544,13.159011
Marsa Brega,30.378139,19.576444
Ras Lanouf V 40,30.500013,18.527161
Hon,29.110106,15.965567
Dahra,29.472567,17.934936
Ghadames,30.151695,9.715305
Zella 74,28.589878,17.293858
Gisenyi,-1.677203,29.258875
Kigali,-1.968628,30.13945
Kamembe,-2.462242,28.90795
Dongola,19.153867,30.430094
Damazin,11.785889,34.336656
El Fasher,13.614892,25.32465
Kassala,15.387494,36.328842
Kadugli,11.138028,29.701122
El Obeid,13.153219,30.232675
Juba,4.872006,31.601117
Malakal,9.558969,31.652242
Khartoum,15.589497,32.553161
Arusha,-3.367794,36.633333
Dar Es Salaam,-6.878111,39.202625
Dodoma,-6.170436,35.752578
Iringa,-7.668633,35.752114
Kilimanjaro,-3.429406,37.074461
Lake Manyara,-3.376306,35.818278
Mtwara,-10.339058,40.181781
Mwanza,-2.444486,32.932667
Pemba,-5.257264,39.811417
Tanga,-5.092358,39.071158
Zanzibar,-6.222025,39.224886
Entebbe,0.042386,32.443503
Dusseldorf,51.220278,6.792778
Soroti,1.727578,33.622861
Tirana,41.414742,19.720561
Bourgas,42.569583,27.515236
Gorna Orechovica,43.151444,25.712889
Plovdiv,42.067806,24.850833
Sofia,42.695194,23.406167
Stara Zagora,42.376667,25.655195
Varna,43.232072,27.825106
Larnaca,34.875117,33.62485
Paphos,34.718039,32.485731
Akrotiri,34.590416,32.987861
Dubrovnik,42.561353,18.268244
Cepin,45.542169,18.636233
Osijek,45.462667,18.810156
Pula,44.893533,13.922192
Grobnik,45.379483,14.503756
Rijeka,45.216889,14.570267
Split,43.538944,16.297964
Varazdin,46.294724,16.38125
Zagreb,45.742931,16.068778
Zadar,44.108269,15.346697
Udbina,44.55761,15.774361
Albacete,38.948528,-1.863517
Alicante,38.282169,-0.558156
Almeria,36.843936,-2.370097
Aviles,43.563567,-6.034622
Cordoba,37.842006,-4.848878
Bilbao,43.301097,-2.910608
Barcelona,41.297078,2.078464
Badajoz,38.89125,-6.821333
La Coruna,43.302061,-8.377256
Granada,37.133222,-3.635694
Gerona,41.900969,2.760547
Granada,37.188731,-3.777356
Madrid,40.294139,-3.723833
Ibiza,38.872858,1.373117
Jerez,36.744622,-6.060111
Murcia,37.774972,-0.812389
Porto Heli,37.298792,23.148986
Madrid,40.493556,-3.566764
Malaga,36.6749,-4.499106
Menorca,39.862597,4.218647
Sevilla,37.174917,-5.615944
Ocana,39.9375,-3.503333
Pamplona,42.770039,-1.646331
Murcia,37.951111,-1.230319
Reus,41.147392,1.167172
Rota,36.645211,-6.349458
Salamanca,40.952117,-5.501986
Son Bonet,39.598889,2.702778
Palma De Mallorca,39.551675,2.738808
San Luis,39.862222,4.258333
San Sebastian,43.356519,-1.790611
Santiago,42.896333,-8.415144
Seo De Urgel,42.338611,1.409167
Madrid,40.496747,-3.445872
Valencia,39.489314,-0.481625
Valladolid,41.706111,-4.851944
Madrid,40.370678,-3.785144
Vitoria,42.882836,-2.724469
Vigo,42.2318,-8.626775
Santander,43.427064,-3.820006
Zaragoza,41.666242,-1.041553
Sevilla,37418,-5.893106
Calais,50.962097,1.954764
Peronne,49.868547,3.029578
Nangis,48.596219,3.006786
Bagnole-de-l'orne,48.545836,-0.387444
Albert,49.971531,2.697661
Le Tourquet,50.517385,1.620587
Valenciennes,50.325808,3.461264
Amiens,49.873019,2.387075
Agen,44.174721,0.590556
Cazaux,44.533333,-1125
Bordeaux,44.828335,-0.715556
Bergerac,44.825279,0.518611
Toulouse,43.545555,1.3675
Cognac,45.658333,-0.3175
Poitiers,46.587745,0.306666
Montlucon-gueret,46.222644,2.363964
Limoges,45.862778,1.179444
Mont-de-marsan,43.911667,-0.5075
Niort,46.311303,-0.401503
Toulouse,43.629075,1.363819
Pau,43.38,-0.418611
La Rochelle,43.448891,1.263333
Tarbes,43.178675,-0.006439
Angouleme,45.729247,0.221456
Brive,45.150833,1.469167
Perigueux,45.198055,0.815556
Biarritz-bayonne,43.468419,-1.523325
Cahors,44.351387,1.475278
St.-girons,43.007764,1.10315
Arcachon,44.59639,-1.110833
Albi,43.913887,2.113056
Castres,43.55625,2.289183
Toulouse,43.586113,1.499167
Millau,43.989342,3183
Graulhet,43.771111,2.010833
Rodez,44.407869,2.482672
Ussel,45.534721,2.423889
Villeneuve-sur-lot,44.396946,0.758889
Royan,45.628056,-0.9725
Mimizan,44.146111,-1.174444
Aire-sur-l'adour,43.709444,-0.245278
Montauban,44.025694,1.378042
Auch,43.687778,0.601667
Libourne,44.982498,-0.134722
Pamiers,43.090556,1.695833
Marmande,44.498919,0.200514
Rochefort,45.887779,-0.983056
Pontivy,48.056789,-2.921244
Aubigny-sur-nere,47.474167,2.393055
Guiscriff-scaer,48.052508,-3.664717
Ancenis,47.408056,-1.1775
Brienne-le Chateau,48.429764,4.482222
Colmar,48.109853,7.359011
Beaune,47.005886,4.893425
Dole,47.039014,5.42725
Joigny,47.992222,3.392222
Verdun,49.122383,5.469047
Aubenas-vals-lanas,44.544236,4.372192
Le Puy,45.080689,3.762889
St.-flour,45.076389,2.993611
Bourg,46.20089,5.292028
Vilefrance,45.901947,4.634906
Moulins,46.534581,3.423725
St.-afrique-belmont,43.823334,2.745278
Cassagnes-beghones,44.177776,2515
Metz,48.982142,6.251319
Bastia,42.552664,9.483731
Calvi,42.530753,8.793189
Figari,41.500557,9.097777
Ajaccio,41.923637,8.802917
Propriano,41.660558,8.889747
Solenzara,41.924416,9406
Corte,42.29361,9.193055
Auxerre,47.850193,3.497111
Chambery,45.63805,5.880225
Clermont-Ferrand,45.786661,3.169169
Bourges,47.058056,2.370278
Chambery,45.56105,5.975761
Chalon,46.826108,4.817633
Annemasse,46.191972,6.268386
Lyon,45.726387,5.090833
Macon,46.295103,4.795767
St.-yan,46.412536,4.013264
Roanne,46.058334,4.001389
Annecy,45.929233,6.098764
Grenoble,45.362944,5.329375
Montlucon,46.352525,2.570486
Valence,44.921594,4.9699
Vichy,46.169689,3.403736
Aurillac,44.891388,2.421944
Chateauroux,46.862194,1.730667
Lyon,45.727172,4.944275
Aix-les-milles,43.505554,5.367778
Le Luc,43.384672,6.387139
Cannes,43.54205,6.953478
St-Etienne,45.540554,4.296389
Istres,43.522736,4.923844
Carcassonne,43.215978,2.306317
Marseille,43.435555,5.213611
Nice,43.658411,7.215872
Orange,44.140481,4.866717
Perpignan,42.740442,2.870667
Le Castellet,43.252506,5.785189
Ales,44.069656,4.142122
Montpellier,43.576194,3.963014
Beziers,43.323522,3.353903
Avignon,43.9073,4.901831
Salon,43.606415,5.10925
Lezignan-corbieres,43.175835,2.734167
Mende,44.502108,3.532819
Carpentras,44.029847,5.078058
Avord,47.053333,2.6325
Beauvais,49.454444,2.112778
Chateaudun,48.058142,1.376625
Saumur,47.256839,-0.115142
Evreux,49.028669,1.219864
Le Havre,49.533889,0.088056
Abbeville,50.143492,1.831892
Orleans,47.987778,1.760556
Chalons,48.776072,4.184492
Rouen,49.384172,1.1748
Tours,47.432222,0.727606
Cholet,47.082136,-0.877064
Laval,48.031361,-0.742986
Orleans,47.896946,2.163333
Paris,48.969444,2.441389
Creil,49.253547,2.519139
Paris,49.012779,2.55
Coulommiers,48.837653,3.016117
Melun,48.604725,2.671119
Toussous-le-noble,48.751922,2.106189
Paris,48.725278,2.359444
Pontoise,49.096647,2.040833
Villacoublay,48.774406,2.201536
Reims,49.208689,4.156581
Troyes,48.322136,4.016703
Luneville,48.593275,6.543456
Etain,49.226917,5.672219
Autun,46.967283,4.260572
Nevers,47.002625,3.113333
Cambrai,50.221814,3.154236
Maubeuge,50.310467,4.033119
Besancon-la-veze,47.206567,6.083681
Phalsbourg,48.76625,7.200519
Lille,50.561942,3.089444
Merville,50.618394,2.642242
Charleville,49.783942,4.647078
Vesoul-frotey,47.637611,6.203922
Brest,48.447911,-4.418539
Cherbourg,49.650106,-1.470281
Dinard,48.587683,-2.079958
La Baule,47.289444,-2.346389
Granville,48.883057,-1.564167
Deauville,49.365339,0.154306
Lorient,47.760555,-3.44
La Roche-sur-yon,46.701944,-1.378625
Landivisiau,48.530258,-4.151642
Caen,49.173333,-0.45
Lanvedoc,48.281703,-4.445017
Le Mans,47.948611,0.201667
Rennes,48.069508,-1.734794
Lannion,48.754378,-3.471656
Quimper,47.974981,-4.167786
Nantes,47.153189,-1.610725
St.-brieuc Armor,48.537777,-2.854445
Morlaix,48.603222,-3.815783
Vannes,47.723303,-2.718561
St.-nazaire,47.312189,-2.149181
Mulhouse,47.589583,7.529914
Colmar,47.921978,7.399669
Dijon,47.26889,5.09
Metz,49.071667,6.131667
Epinal,48.324961,6.069983
Haguenau,48.794331,7.817613
St.-dizier,48.636008,4.899417
Montbeliard,47487,6.790536
Nancy,48.692069,6.230458
Nancy,48.583056,5955
Pontarlier,46.903958,6.327367
Reims,49.31,4.05
Strasbourg,48.538319,7.628233
Luxeuil,47.783131,6.364056
Cuers,43.247803,6.126697
Hyeres,43.0973,6.14603
Nimes,43.757444,4.416347
Miquelon,47.095472,-56.380278
St.-pierre,46.762904,-56.173088
Amberieu,45.987335,5.328445
Damblain,48.086325,5.664058
Andravida,37.920708,21.292583
Agrinion,38.602022,21.351208
Alexandroupolis,40.855869,25.956264
Alexandria,40.651128,22.488739
Nea Anghialos,39.219619,22.794339
Elefsis,38.063831,23.556011
Chios,38.343175,26.140572
Ioannina,39.696388,20.8225
Heraklion,35.339719,25.180297
Kastoria,40.446294,21.282186
Kithira,36.274258,23.016978
Keffallinia,38.120069,20.500481
Kalamata,37.068319,22.025525
Kavala,40.972775,24.341417
Kos,36.793335,27.091667
Karpathos,35.421408,27.146008
Kerkyra/corfu,39.601944,19.911667
Kasos,35.421358,26.910047
Kavala,40.913306,24.619223
Kozani,40.28611,21.840834
Leros,37.184903,26.800289
Limnos,39.917072,25.236308
Larissa,39.650253,22.4655
Megara,37.981114,23.365422
Mykonos,37.435128,25.348103
Mytilini,39.056667,26.598333
Preveza,38.925467,20.765311
Rhodos,36.383056,28.108889
Rhodos,36.405419,28.086192
Patras,38.151111,21.425556
Chania,35.531747,24.149678
Skiathos,39.1771,23.503675
Samos,37.689999,26.911667
Lympne,51.083333,1.016667
Sparti,36.973892,22.526292
Thira,36.399169,25.479333
Sitia,35.216108,26.101325
Stefanovikion,39.48,22.767222
Skiros,38.967553,24.487228
Tanagra,38.339847,23.564958
Kasteli,35.192019,25327
Tripolis,37.530567,22.403633
Thessaloniki,40.519725,22.97095
Dekelia,38.108928,23.783836
Zakynthos,37.750853,20.88425
Budapest,47.436933,19.255592
Debrecen,47.488917,21.615333
Kecskemet,46.9175,19.749222
Nyirregyhaza,47.983892,21.692317
Ocseny,46.303889,18.769167
Sturgeon Bay,44.8436667,-87.4215556
Azentkilyszabadja,47.077861,17.968444
Szolnok,47.122861,20.2355
Amendola,41.541392,15.718083
Crotone,38.997225,17.080169
Bari,41.138856,16.760594
Foggia,41.432917,15.535028
Grottaglie,40.517514,17.403212
Lecce,40.239228,18.133325
Pescara,42.431656,14.181067
Brindisi,40.657633,17.947033
Gioia Del Colle,40.767833,16.933333
Lamezia,38.905394,16.242269
Catania,37.466781,15.0664
Lampedusa,35.497914,12.618083
Pantelleria,36.816519,11.968864
Palermo,38.175958,13.091019
Palermo,38.110833,13.313333
Reggio Calabria,38.071206,15.651556
Trapani,37.911403,12.487961
Sigonella,37.401664,14.922358
Alghero,40.632133,8.290772
Decimomannu,39.354222,8.972481
Cagliari,39.251469,9.054283
Olbia,40.898661,9.517628
Tortoli,39.918761,9.682981
Turin,45.086353,7.603375
Milano,45.542222,9.203333
Milano,45.630606,8.728111
Bergamo,45.673889,9.704166
Torino,45.200761,7.649631
Albenga,44.050608,8.127428
Genoa,44.413333,8.8375
Milan,45.445103,9.276739
Cameri,45.529592,8.669225
Parma,44.824483,10.296367
Piacenza,44.913055,9.723333
Stewartstown,39.7948244,-76.6471914
Cuneo,44.547019,7.623217
Aviano,46.031889,12.596472
Bolzano,46.460194,11.326383
Cervia,44.224175,12.307203
Bologna,44.535444,11.288667
Treviso,45.6484,12.194422
Rivolto,45.97875,13.049331
Forli,44.194753,12.070094
Ghedi,45.432167,10.267667
Verona,45.472017,10.927919
Brescia,45.428889,10.330556
Ronchi De Legionari,45.8275,13.472222
Rimini,44.020292,12.611747
Treviso,45.684867,12.082881
Vicenza,45.573411,11.52955
Padova,45.395767,11.847903
Villafranca,45.395706,10.888533
Venice,45.505278,12.351944
Siena,43.256286,11.255036
Rome,41.799361,12.594936
Pratica Di Mare,41.654522,12.445183
Rome,41.804475,12.250797
Guidonia,41.990278,12.740833
Marina Di Campo,42.760277,10.239445
Latina,41.542436,12.909019
Grazzanise,41.060833,14.081944
Naples,40.886033,14.290781
Pisa,43.683917,10.39275
Florence,43.809953,11.2051
Grosseto,42.759747,11.071897
Rome,41.951946,12.498889
Viterbo,42.430183,12.064156
Perugia,43.095906,12.513222
Cerklje,45.899971,15.530194
Ljubljana,46.223686,14.457611
Maribor,46.479861,15.686131
Portoroz,45.473353,13.614978
Slovenj Gradec,46.471975,15.116997
Ceske Budejovice,48.946381,14.427464
Caslav,49.939653,15.381808
Hradec Kralove,50.2532,15.845228
Horovice,49.848111,13.893506
Praha,50.121367,14.543642
Kunovice,49.029444,17.439722
Karlovy Vary,50.202978,12.914983
Line,49.675172,13.274617
Mnichovo Hradiste,50.540211,15.006592
Ostrava,49.696292,18.111053
Namest,49.165833,16.124925
Pardubice,50.013419,15.738647
Pribram,49.720078,14.100567
Prerov,49.425833,17.404722
Prague,50.100833,14.26
Brno,49.151269,16.694433
Vodochody,50.216581,14.395806
Tel-aviv,32.011389,34.886667
Beer-sheba,31.287003,34.722953
Tel-nof,31.839472,34.821844
Eyn-shemer,32.440814,35.007661
Elat,29.561281,34.960081
Eyn-yahav,30.621656,35.203325
Haifa,32.809444,35.043056
Haztor,31.7625,34.727222
Rosh Pina,32.981047,35.571908
Megido Airstrip,32.597139,35.228803
Metzada,31.328169,35.388608
Nevatim,31.208347,35.0123
Ovda,29.94025,34.93585
Ramat David,32.665142,35.179458
Ramon,30.776061,34.666769
Tel-aviv,32.114661,34.782239
Malta,35.857497,14.4775
Wiener Neustadt Ost,47.843333,16.260139
Wels,48.183304,14.040861
Graz,46.991067,15.439628
Innsbruck,47.260219,11.343964
Linz,48.233219,14.187511
Salzburg,47.793304,13.004333
Vienna,48.110278,16.569722
Klagenfurt,46.642514,14.337739
Zeltweg,47.202751,14.744223
Alverca,38.883278,-9.030097
Santa Maria (island),36.97139,-25.170639
Braganca,41.8578,-6.707125
Beja (madeira),38.078903,-7.932397
Braga,41.587058,-8.445139
Coimba,40.157223,-8.47
Cascais,38.725025,-9.355231
Covilha,40.264772,-7.479958
Evora,38.533472,-7.889639
Flores,39.455272,-31.131361
Faro,37.014425,-7.965911
Graciosa Island,39.092169,-28.029847
Horta,38.519894,-28.715872
Lajes (terceira Island),38.761842,-27.090797
Monte Real,39.831244,-8.887261
Montijo,38.703861,-9.035916
Ovar,40.915867,-8.645919
Ponta Delgada,37.741184,-25.69787
Pico,38.554333,-28.441333
Portimao,37.149331,-8.583961
Porto,41.248055,-8.681389
Porto Santo,33.073386,-16.349975
Lisbon,38.781311,-9.135919
Sao Jorge Island,38.6655,-28.175817
Sintra,38.831053,-9.339553
Tancos,39.47514,-8.364583
Vila Real,41.274334,-7.720472
Viseu,40.725539,-7.888992
Pendleton,45695,-118.841389
Mostar,43.2829,17.845878
Sarajevo,43.824583,18.331467
Arad,46.17655,21.262022
Bacau,46.521946,26.910278
Baia Mare,47.658389,23.470022
Bucharest,44.503194,26.102111
Constanta,44.362222,28.488333
Cluj-napoca,46.785167,23.686167
Caransebes,45.42,22.253333
Craiova,44.318139,23.888611
Iasi,47.178492,27.620631
Oradea,47.025278,21.9025
Bucharest,44.572161,26.102178
Sibiu,45.785597,24.091342
Satu Mare,47.703275,22.8857
Suceava,47.6875,26.354056
Tulcea,45.062486,28.714311
Tirgu Mures,46.467714,24.412525
Timisoara,45.809861,21.337861
Les Eplatures,47.08385,6.792836
Geneva,46.238064,6.10895
Saanen,46.487499,7.250834
Sion,46.219592,7.326764
Alpnach,46.943889,8.284167
Dubendorf,47.398644,8.648231
Emmen,47.092369,8.305117
Mollis,47.078872,9.064831
Meiringen,46.743333,8.11
Payerne,46.843208,6.915058
Buochs,46.974914,8.39915
Lugano,46.004275,8.910578
Bern,46.9141,7.497153
Grenchen,47.181628,7.417189
Zurich,47.464722,8.549167
Altenrhein,47.485033,9.560775
Samedan,46.534075,9.884106
Ankara,39.93495,32.740775
Ankara,40.128082,32.995083
Ankara,39.949831,32.688622
Ankara,40.078919,32.565625
Adana,36.982166,35.280388
Adana,37.0021,35.425894
Afyon,38.726425,30.601114
Antalya,36.898731,30.800461
Gaziantep,36.947183,37.478683
Iskenderun,36.573472,36154
Konya,37979,32.561861
Malatya,38.35375,38.253944
Merzifon,40.829375,35.521992
Sivas,39.813828,36.903497
Malatya,38.435347,38.091006
Kayseri,38.770386,35.495428
Sivrihisar,39.451469,31.365308
Tokat,40.306281,36.371089
Denizli,37.785567,29.701297
Istanbul,40.976922,28.814606
Balikesir,39.619258,27.925958
Bandirma,40.317972,27.977694
Tyonek,61.076667,-151.138056
Eskisehir,39.784138,30.582111
Izmir,38.292392,27.156953
Izmir,38.319106,27.159353
Izmir,38.513022,27.010053
Isparta,37.785369,30.581817
Kutahya,39.426708,30.016872
Yalova,40.684353,29.375728
Topel,40.735028,30.083336
Dalaman,36.713056,28.7925
Akhisar,38.808887,27.83386
Riverton WY,43.064167,-108.459722
Bodrum,37.140144,27.669717
Istanbul,40.992975,29.216539
Elazig,38.606925,39.291417
Diyabakir,37.893897,40.201019
Erzincan,39.710203,39.527003
Erzurum,39.956501,41.170166
Trabzon,40.995108,39.789728
Montrose CO,38.509794,-107.894242
Van,38.468219,43.3323
Batman,37.928969,41.116583
Siirt,37.978886,41.840436
Izmir,38.517608,26.977406
Izmir,37.950747,27.329014
Saltsy,47.838114,27.781475
Chisinau,46.927744,28.930978
Ohrid,41.179956,20.742325
Skopje,41.961622,21.621381
Gibraltar,36.151219,-5.349664
Belgrade,44.818444,20.309139
Nis,43.337289,21.853722
Podgorica,42.359392,19.251894
Pristina,42.572778,21.035833
Tivat,42.404664,18.723286
Vrsac,45.146889,21.309889
Bratislava,48.170167,17.212667
Kosice,48.663055,21.241112
Malacky,48.402028,17.118389
Piestany,48.625247,17.828444
Sliac,48.637839,19.134108
Trencin,48.865003,17.99225
Poprad,49.073594,20.241142
Bolingbrook,41.6959744,-88.1292306
North Caicos,21.917475,-71.939561
Providenciales,21.773625,-72.265886
South Caicos,21.515739,-71.528528
Samana,19.198586,-69.429772
Barahona,18.251464,-71.1204
Cabo Rojo,17.928981,-71.644769
La Romana,18.450711,-68.911833
Punta Cana,18.567367,-68.363431
Puerto Plata,19.7579,-70.570033
Santo Domingo,18.429664,-69.668925
San Isidoro,18.503706,-69.761706
Santiago,19.406092,-70.604689
Bananera,15.473528,-88.837222
Coban,15.468958,-90.406742
Guatemala City,14.583272,-90.527475
Retalhuleu,14.521017,-91.697256
San Jose,13.936192,-90.835833
La Ceiba,15.742481,-86.853036
San Pedro Sula,15.452639,-87.923556
Guanaja,16.445367,-85.906611
Roatan,16.316814,-86.522961
Tela,15.775864,-87.475847
Tegucigalpa,14.060883,-87.217197
Trujillo,15.926847,-85.93825
Ocho Rios,18.404247,-76.969017
Kingston,17.935667,-76.7875
Montego Bay,18.503717,-77.913358
Port Antonio,18.198806,-76.534528
Kingston,17.988558,-76.823761
Acapulco,16.757061,-99.753953
Monterrey,25.865572,-100.237239
Aguascalientes,21.705558,-102.317858
Huatulco,15.775317,-96.262572
Cuernavaca,18.834764,-99.2613
Ciudad Acuna,29.333917,-101.100892
Ciudad Del Carmen,18.653739,-91.799017
Nuevo Casas Grandes,30.397439,-107.874969
Chilpancingo,17.573767,-99.514339
Culiacan,24.764547,-107.474717
Chetumal,18.504667,-88.326847
Ciudad Obregon,27.392639,-109.833111
Campeche,19.816794,-90.500314
Ciudad Juarez,31.636133,-106.428667
Chihuahua,28.702875,-105.964567
Ciudad Victoria,23.703336,-98.956486
Kenosha,42.5956944,-87.9278056
Cozumel,20.522403,-86.925644
Durango,24.124194,-104.528014
Tepic,21.419453,-104.842581
Ensenada,31.795281,-116.602772
Guadalajara,20.5218,-103.311167
Guaymas,27.968983,-110.925169
Tehuacan,18.497189,-97.419942
Hermosillo,29.095858,-111.047858
Colima,19.277011,-103.577397
Isla Mujeres,21.245033,-86.739967
Saltillo,25.549497,-100.928669
Iztepec,16.449336,-95.093697
Lazard Cardenas,18.001731,-102.220525
Los Mochis,25.685194,-109.080806
Del Bajio,20.993464,-101.480847
La Paz,24.072694,-110.362475
Loreto,25.989194,-111.348361
Matamoros,25.769894,-97.525311
Merida,20.936981,-89.657672
Mexicali,32.630634,-115.241637
Morelia,19.849944,-101.0255
Minatitlan,18.103419,-94.580681
Monclova,26.955733,-101.470136
Mexico City,19.436303,-99.072097
Monterrey,25.778489,-100.106878
Mazatlan,23.161356,-106.266072
Nogales,31.226083,-110.975831
Nuevo Laredo,27.443918,-99.57046
Oaxaca,16.999906,-96.726639
Poza Rico,20.602671,-97.460839
Puebla,19.158144,-98.371447
Pachuca,20.0772,-98.782814
Punta Penasco,31.351878,-113.525728
Piedras Negras,28.627394,-100.535211
Uruapan,19.396692,-102.039056
Puerto Vallarta,20.680083,-105.254167
Puerto Escondido,15.876861,-97.089117
Queretaro,20.617289,-100.185658
Reynosa,26.008908,-98.228513
San Jose Del Cabo,23.15185,-109.721044
San Filipe,30.930222,-114.808639
San Luis Potosi,22.254303,-100.930806
Tlaxcala,19.537964,-98.173467
Tuxtla Gutierrez,16.739919,-93.173297
Torreon,25.568278,-103.410583
Tuxtla Gutierrez,16.561822,-93.026081
Tijuana,32.541064,-116.970158
Tampico,22.29645,-97.865931
Tamuin,22.038292,-98.806503
Toluca,19.337072,-99.566008
Tapachula,14.794339,-92.370025
Cancun,21.036528,-86.877083
Villahermosa,17997,-92.817361
Vera Cruz,19.145931,-96.187267
Zacatecas,22.897112,-102.68689
Zihuatanejo,17.601569,-101.460536
Zamora,20.045036,-102.275955
Manzanillo,19.144778,-104.558631
Zapopan,20.755833,-103.465278
Bluefields,11.990961,-83.774086
Los Brasiles,12.190044,-86.353872
Leon,12.428028,-86.902361
Managua,12.141494,-86.168178
Puerto Cabezas,14.047194,-83.386722
Bocas Del Toro,9.340853,-82.250842
Changuinola,9.458636,-82.516806
David,8.391003,-82.434992
Howard,8.914794,-79.599633
Panama,8.973339,-79.555583
Santiago,8.085597,-80.945253
Panama City,9.071364,-79.383453
Buenos Aires,9.163606,-83.329872
Las Vegas,36.2106944,-115.1944444
Coto 47,8.601556,-82.968614
Chacarita,9.981408,-84.772736
Georgetown,38.8819456,-83.8827367
El Carmen,10.202033,-83.472167
Finca 10,8.916347,-83.507267
Golfito,8.653775,-83.180544
Guapiles,10.217194,-83.797003
Liberia,10.593289,-85.544408
Los Chiles,11.035277,-84.706108
Limon,9.957961,-83.022006
Nosara Beach,9.97649,-85653
San Jose,9.993861,-84.208806
Pandora,9.732169,-82.983214
Palmar Sur,8.951025,-83.468583
Quepos,9.443164,-84.129772
Santa Clara,10.288278,-83.713519
San Vito De Jaba,8.826111,-82.958885
San Salvador,13.440947,-89.055728
San Salvador,13.699492,-89.119861
Cayes,18.271103,-73.788289
Cap Haitien,19.732989,-72.194739
Jacmel,18.241083,-72.5185
Port-au-prince,18.58005,-72.292542
Baracoa Playa,20.365317,-74.506206
Bayamo,20.396331,-76.621494
Ciego De Avila,22.027053,-78.789617
Cunagua,22.460986,-78.328422
Cienfuegos,22.15,-80.414167
Cayo Largo del Sur,21.616453,-81.545989
Camaguey,21.420428,-77.847433
Santiago De Cuba,19.969769,-75.835414
Florida,21.499722,-78.202778
Guantanamo,19.906458,-75.207056
Guantanamo,20.085419,-75.158328
Havana,22.989153,-82.409086
Holguin,20.785589,-76.315108
La Coloma,22.336261,-83.642111
Moa,20.654114,-74.922114
Manzanillo,20.288172,-77.0893
Nueva Gerona,21.834689,-82.783819
Baracoa Playa,23.032778,-82.579444
Pinar Del Rio Norte,22.421356,-83.678428
San Antonio De Banos,22.871529,-82.509308
Santa Clara,22.492192,-79.943611
Santa Lucia,21.509453,-77.020375
Siguanea,21.642525,-82.955114
Sancti Spiritus,21.969969,-79.442692
Lake Geneva,42.6149167,-88.3895833
Varadero,23.034445,-81.435278
Las Tunas,20.987642,-76.9358
Cayman Barac,19.686981,-79.882789
Georgetown,19.292778,-81.35775
Clarence Bain,24.287664,-77.684614
Andros Town,24.698283,-77.795611
Marsh Harbor,26.511406,-77.083472
San Andros,25.053814,-78.048997
Spring Point,22.441828,-73.970858
Sandy Point,26.004639,-77.395483
Treasure Cay,26.745336,-77.391269
Chub Cay,25.417108,-77.88085
Bullocks Harbour,25.738331,-77.840114
Alice Town,25.699881,-79.264656
De Kalb,41.9338342,-88.7056864
Great Exuma,23.562631,-75.877958
George Town,23.466667,-75.78167
North Eleuthera,25.474861,-76.683489
Governor's Harbor,25.284706,-76.331011
Norman's Cay,24.594258,-76.820214
Rock Sound,24.8917,-76.177739
Staniel Cay,24.169083,-76.439056
Freeport,26.558686,-78.695553
Matthew Town,20975,-73.666862
Dead Man's Cay,23.179014,-75.093597
Stella Maris,23.581444,-75.270475
Mayaguana,22.379528,-73.0135
Nassau,25.038958,-77.466231
Duncan Town,22.181803,-75.729456
Port Nelson,23.684378,-74.836186
Cockburn Town,24.063275,-74.523967
Belize City,17.539144,-88.308203
Aitutaki,-18.830922,-159.764233
Avarua,-21.202739,-159.805556
Nandi,-17.755392,177.443378
Nausori,-18.043267,178.559228
Tongatapu,-21.241214,-175.149644
Vava'u,-18.585336,-173.961717
Tarawa,1.381636,173.147036
Tabiteuea North,-1.224469,174.775614
Maitland,-32.7033,151488
Wallis,-13.238281,-176.199228
Faleolo,-13.829969,-172.008336
Pago Pago,-14331,-170.7105
Rurutu,-22.434069,-151.360614
Tubuai,-23.365353,-149.524072
Anaa,-17.352606,-145.509956
Fangatau,-15.819928,-140.88715
Tikehau,-15.119617,-148.230697
Reao,-18.465861,-136.439706
Fakarava,-16.05415,-145.656994
Manihi,-14.436764,-146.070056
Totegegie,-23.079861,-134.890333
Kaukura Atoll,-15.663333,-146.884769
Makemo,-16.583919,-143.658369
Puka Puka,-14.809458,-138.812811
Takapoto,-14.709544,-145.245814
Arutua,-15.248289,-146.616708
Mataiva,-14.868055,-148.717225
Takaroa,-14.455781,-145.024542
Nuku Hiva,-8.795603,-140.228789
Lafayette,40.4123056,-86.9368889
Bora Bora,-16.444378,-151.751286
Rangiroa,-14.954283,-147.6608
Huahine Island,-16.687242,-151.021667
Moorea,-17.489972,-149.761869
Hao Island,-18.074814,-140.945886
Maupiti,-16.426486,-152.243669
Raiatea Island,-16.722861,-151.465856
Port-vila,-17.699325,168.319794
Kone,-21.053428,164.837806
Koumac,-20.546314,164.255625
Lifou,-20.7748,167.239864
Noumea,-22.258278,166.472806
Mare,-21.481678,168.037508
Touho,-20.790028,165.259486
Ouvea,-20.640556,166.572778
Noumea,-22.014553,166.212972
Auckland,-37.008056,174.791667
Taupo,-38.739723,176.084444
Ardmore,-37.029722,174.973333
Christchurch,-43.489358,172.532225
Chatham Island,-43.81,-176.457222
Dunedin,-45.928055,170.198333
Gisborne,-38.663333,177.978333
Glentanner,-43.906666,170.128333
Hokitika,-42.713611,170.985278
Hamilton,-37.866661,175.332056
Hastings,-39.646667,176.766944
Kerikeri,-35.262779,173.911944
Kaitaia,-35.07,173.285278
Alexandra,-45.211666,169.373333
Mount Cook,-43.764999,170.133333
Manapouri,-45.533056,167.65
Masterton,-40.973333,175.633611
New Plymouth,-39.008611,174.179167
Nelson,-41.298333,173.221111
Invercargill,-46.412408,168.312992
Ohakea,-40.206039,175.387808
Oamaru,-44.97,171.081667
Palmerston North,-40.320556,175.616944
Paraparaumu,-40.904722,174.989167
Queenstown International,-45.021111,168.739167
Rotorua,-38.109167,176.317222
Waiouru,-39.446389,175.658333
Stephen's Island,-89.999997,0
Tauranga,-37.671944,176.19611
Timaru,-44.302778,171.225278
Pukaki,-44235,170.118333
Woodbourne,-41.518333,173.870278
Weydon,-77.867358,167.056572
Wanaka,-44.722222,169.245556
Wigram,-43.551111,172.552778
Whakatane,-37.920556,176.914167
Wellington,-41.327221,174.805278
Wairoa,-39.006944,177.406667
Whenuapai,-36.787777,174.630278
Whangarei,-35.768333,174365
Westport,-41.738056,171.580833
Wanganui,-39.962222,175.025278
Herat,34.210017,62.2283
Jalalabad,34.399842,70.498625
Kabul,34.565853,69.212328
Kandahar,31.505756,65.847822
Maimama,35.930789,64.760917
Mazar-i-sharif,36.706914,67.209678
Shindand,33.391331,62.260975
Sheberghan,36.750783,65.913164
Kunduz,36.665111,68.910833
Bahrain,26.270834,50.63361
Bahrain,25.918362,50.590557
Abha,18.240367,42.656625
Al-ahsa,25.285306,49.485189
El-baha,20.296139,41.634277
Bisha,19.98435,42.620881
Abqaiq,25.911281,49.591231
Dammam,26.471161,49.79789
Dhahran,26.265417,50.152027
Gizan,16.901111,42.585833
Gassim,26.302822,43.773911
Guriat,31.411942,37.279469
Hail,27.437917,41.686292
Jubail,27.039028,49.405083
Jeddah,21.3481,39.173033
Jeddah,21.679564,39.156536
King Khalid Mil.city,27.900917,45.528194
Madinah,24.553422,39.705061
Nejran,17.611436,44.419169
Hafr Al-batin,28.335192,46.125069
Petroline 3,25.174547,47.488431
Petroline 6,24.710333,44.964527
Petroline 10,24.107339,41.036047
Rabigh,22.702608,39.069842
Rafha,29.626419,43.490614
Riyadh,24.95764,46.698776
Rash Mishab,28.079584,48.610973
Arar,30.906589,41.138217
Ras Tanura,26.723108,50.030814
Sharurah,17.466875,47.121431
Mudgee,-32.5625,149611
Sulayel,20.464744,45.619644
Tabuk,28.365417,36.618889
Taif,21.483418,40.544334
Thumamah,25.212986,46.640978
Ras Tanajib,27.867844,48.76915
Turaif,31.692683,38.7312
Oxford,39.5022607,-84.7843814
Wejh,26.198553,36.476381
Yenbo,24.144244,38.06335
Abadan,30.371111,48.228333
Dezful,32.434444,48.39764
Aghajari,30.74445,49.677183
Gachsaran,30.337567,50.827964
Masjed Soleiman,32.002372,49.270364
Omidyeh,30.835167,49.534916
Bandar Mahshahr,30.556192,49.151879
Ahwaz,31.337431,48.76195
Abumusa I.,25.875742,55.032994
Bushehr,28.944811,50.834637
Bastak,27.212678,54.318592
Golbandi,27.481425,52.615483
Kish Island,26.526156,53.980211
Bandar Lengeh,26532,54.824847
Khark Island,29.260278,50.323889
Siri Island,25.908869,54.5394
Lavan Island,26.8103,53.356289
Bakhtaran,34.345853,47.158128
Sanandaj,35.245856,47.009247
Daran,32.928889,51.561111
Esfahan,32.567039,51.691594
Kashan,33.895333,51.577044
Esfahan,32.750836,51.861267
Sepah,32.621108,51.697017
Rasht,37.325314,49.605817
Muncie,40.2424722,-85.39575
Arak,34.138147,49.847292
Abe-ali,35.952097,50.450778
Kushke Nosrat,34.98395,50.806219
Teheran,35.702983,51.475131
Abyek,35.416111,51.152222
Teheran,35.644806,51.380695
Teheran,35.689167,51.313416
Ghazvin,36.240061,50.047153
Khoram Dareh,35.776286,50.881014
Bandar Abbas,27.218317,56.37785
Jiroft,28.726925,57.670269
Kerman,30.274444,56.951111
Bandar Abbas,27.158251,56.172461
Gheshm I.,26.754639,55.902353
Sirjan,29.550933,55.672708
Birjand,32.898056,59.266111
Sarakhs,36.501178,61.064903
Emam Shahr,36.425094,55.104833
Airlie Beach,-20276,148755
Tabas,33.66775,56.892675
Kalaleh,37.383272,55.452008
Ramsar,36.909908,50.679589
Rafaela,-31.282072,-61.501594
Fasa,28.891756,53.723339
Jahrom,28.586675,53.579144
Lamerd,27.372744,53.188794
Shiraz,29.539242,52.589786
Khoy,38.427453,44.973575
Sabadell,41.5209,2.10508
Tabriz,38.133889,46235
Zanjan,36.77365,48.359422
Yazd,31.904908,54.276503
Zabol,31.098333,61.543889
Chah Bahar,25.44335,60.382114
Zahedan,29.475686,60.906189
Iran Shahr,27.236117,60.720039
Saravan,27.419261,62.315789
Amman,31.722556,35.993214
Amman,31.972703,35.991569
Aqaba,29.611619,35.018067
Hotel Four,32.160747,37.149383
Jerusalem,31.864722,35.219167
Mafraq,32.356353,36.259181
Kuwait,29.226567,47.968928
Beirut,33.820931,35.488389
Kleiat,34.589333,36.011322
Abu Dhabi,24.432972,54.651138
Abu Dhabi,24.428333,54.458084
Al Hamra,24.073981,52.463644
Jebel Dhana,24.187428,52614
Myvatn,65.6558,-16.9181
Abu Dhabi,24.248249,54.547722
Arzana,24.780528,52.559944
Das Island,25.146219,52.873711
Zirku,24.861542,53.077833
Dubai,25.252778,55.364444
Fujeirah,25.112225,56.323964
Ras Al Khaimah,25.613483,55.938817
Sharjah,25.328575,55.51715
Khasab,26.170986,56.240569
Masirah,20.675434,58.890467
Muscat,23.593278,58.284444
Salalah,17.038719,54.091297
Thumrait,17666,54.024612
Bhagtanwala,32.056108,72.9484
Spray View,-17917,25817
Lyon,46,5
Faisalabad,31.365014,72.994842
Gwadar,25.233308,62.329494
Gilgit,35.918786,74.333644
Jacobsbad,28.284167,68.449711
Karachi,24.906547,67.160797
Lahore,31.521564,74.403594
Lahore,31.494794,74.346239
Mangla,33.050086,73.638381
Muzaffarabad,34.339022,73.508639
Mianwali,32.563089,71.570681
Moenjodaro,27.335156,68.143053
Karachi,24.893564,66.938753
Multan,30.203222,71.419111
Nawabshah,26.219442,68.390053
Okara,30.741025,73.357736
Panjgur,26.954547,64.132517
Pasni,25.290487,63.345083
Peshawar,33.993911,71.514581
Qasim,33.560153,73.033217
Quetta,30.251369,66.937764
Rahim Yar Khan,28.3839,70.279572
Islamabad,33.616653,73.099233
Risalpur,34.081112,71.972583
Rawala Kot,33.849658,73.798147
Point Roberts,48.9797222,-123.0788889
Sukkur,27.721989,68.791683
Saidu Sharif,34.813556,72.352814
Sui,28.645142,69.176917
Talhar,24.841519,68.838408
Wana,32.304664,69.570433
Zhob,31.358381,69.463606
Basrah,30.549069,47.662142
Aleppo,36.180675,37.224358
Damascus,33.410636,36.514267
Deire Zor,35.285374,40.175961
Latakia,35.401094,35.948681
Palmyra,34.557361,38.316889
Doha,25.261125,51.565056
Canton Island,-2.768122,-171.710394
Rota,14.174308,145.242536
Saipan,15.119003,145.729356
Andersen,13.583953,144.930025
Agana,13.48345,144.795983
West Tinian,14.999203,145.61935
Scone,-32.0372,150832
Majuro,7.064758,171.272022
Kwajalein,9.396886,167.470869
Kwajalein,8.720122,167.731661
Kiritimati,1.986161,-157.349778
Midway,28.201725,-177.380636
Chuuk,7.461869,151.843006
Pohnpei,6.9851,158.208989
Babelthuap,7.367303,134.544278
Kosrae,5.356975,162.958386
Yap,9.498911,138.082497
Kinmen,24.427892,118.359197
Pingtung,22.672367,120.461728
Longtang,24.855136,121.237636
Fengnin,22.754986,121.101681
Green Island,22.673853,121.466481
Kaohsiung,22.577094,120.350006
Chiayi,23.461779,120.39283
Lanyu,22.028842,121.533642
Taichung,24.264668,120.62058
Cessnock,-32.7875,151342
Tainan,22.950361,120.205778
Hsinchu,24.818033,120.939394
Makung,23.568669,119.628311
Taitung,22.793117,121.181975
Pingtung,22.700239,120482
Taipei,25.069722,121.5525
Taipei,25.077731,121.232822
Wang An,23.370833,119.494444
Hualien,24.023725,121.616906
Tokyo,35.764722,140.386389
Matsumoto,36.166758,137.922669
Ibaraki,36.181083,140.415444
Minami Tori Shima,24.289697,153.979119
Iwojima,24784,141.322722
Nanki-shirahama,33.662222,135.364444
Kohnan,34.590836,133.933225
Obihiro,42.733333,143.217222
Sapporo,42.7752,141.692283
Hakodate,41.77,140.821944
Chitose,42.794475,141.666447
Memanbetsu,43.880606,144.164053
Nakashibetsu,43.5775,144.96
Tokachi,42.890544,143.158475
Wakkanai,45.404167,141.800833
Iki,33.749027,129.785417
Yamaguchi,33.93,131.278611
Tsushima,34.284889,129.33055
Monbetsu,44.303914,143.404028
Asahikawa,43.670833,142.4475
Okushiri,42.071667,139.432911
Rishiri Island,45.242006,141.186431
Ashiya,33.883083,130653
Yakushima,30.385569,130.659017
Fukue,32.666269,128.832808
Fukuoka,33.585942,130.450686
Tanegashima,30.605067,130.991231
Kagoshima,31.803397,130.719408
Miyazaki,31.877222,131.448611
Nyutabaru,32.083611,131.451389
Oita,33.479444,131.737222
Kitakyushu,33.845942,131.034689
Kumamoto,32.837319,130.85505
Nagasaki,32.916944,129.913611
Kanoya,31.367608,130.845456
Tsuiki,33685,131.040278
Amami,28.430633,129.712542
Okierabu,27.425522,128.700903
Tokunoshima,27.836381,128.881253
Fukui,36.142847,136.223922
Gifu,35.394078,136.869667
Hamamatsu,34.750239,137.703083
Kanazawa,36.394611,136.406544
Oki Island,36.181125,133.324844
Toyama,36.648333,137.1875
Yaizu,34.812778,138.298056
Hiroshima,34.436111,132.919444
Okayama,34.756944,133.855278
Izumo,35.413611,132.89
Hofu,34.034667,131.549194
Miho,35.492222,133.236389
Iwakuni,34.14386,132.23575
Kochi,33.546111,133.669444
Matsuyama,33.827222,132.699722
Osaka,34.785528,135.438222
Tottori,35.530069,134.166553
Tokushima,34.132808,134.606639
Takamatsu,34.214167,134.015556
Osaka,34.596311,135.602944
Ozuki,34.045322,131.052144
Aomori,40.734722,140.690833
Yamagata,38.411894,140.371331
Sado,38.060181,138.413928
Hachinoe,40.556447,141.466325
Hanamaki,39.428611,141.135278
Akita,39.615556,140.218611
Misawa,40.703222,141.368364
Sendai,38.139722,140.916944
Matsushima,38.404919,141.219572
Sazena,50.1929,14.1532
Atsugi,35.454611,139.450167
Tateyama,34.987053,139.829208
Hachijojima,33115,139.785833
Iruma,35.841944,139.410556
Kisarazu,35.398272,139.909936
Shimofusa,35.798944,140.011111
Oshima,34.782033,139.360306
Zama,35.513769,139.393675
Tokyo,35.552258,139.779694
Yokota,35.748492,139.348483
Kwangju,35.126389,126.808889
Jhunju,35.878436,127.11955
Yeosu,34.842328,127.61685
Sokch'o,38.142614,128.598556
Kangnung,37.753561,128.943625
Macomb,40.5200833,-90.6523889
Cheju,33.511306,126.493028
Chinhae,35.141175,128.695792
Busan,35.179528,128.938222
Bungle Bungle,-17.5453,128307
Ulsan,35.593494,129.351722
Pyongtaek,36.962214,127.031072
Seoul East,37.445833,127.113889
Osan,37.090617,127.029594
Seoul,37.558311,126.790586
Suwon,37.239406,127.007053
Pohang,35.987858,129.420486
Taegu,35.894108,128.658856
Yechon,36.631933,128.35485
Okinawa,26.195814,127.645869
Iejima,26.728775,127.761775
Kadena,26.355612,127.767633
Ishigaki,24.344525,124.186983
Kumejima,26.363506,126.713806
Minami Daito,25.846533,131.263494
Miyako,24.782833,125.295111
Kitadaito,25.944722,131.326944
Shimojishima,24.826667,125.144722
Tarama,24.653889,124.675278
Yoron,27.043964,128.401517
Futema,26.274275,127.756494
Yonaguni Jima,24.466944,122.977778
Manila,14.508647,121.019581
Mary,37.6194,61.8967
Cotabato,7.165242,124.209619
Ladag,8.415619,124.611219
Pagadian,7.827197,123.458294
Romblon,6.058003,125.096033
Tsavo East,-3.070875,39.2194305555556
Zamboanga,6.922419,122.059633
Baguio,16.375103,120.619636
Daet,14.129167,122.980181
Floridablanca,14.986527,120.4925
Lingayen,16.034786,120.241106
San Jose,12.361517,121.046639
Lipa,13.955017,121.124925
Mamburao,13.208092,120.60535
Vigan,17.555331,120.355797
Baler,15.729836,121.500133
Kimana,-2.8,37.5333333333333
Solio,-0.245167,36.8849
Kalundborg,55.7001,11.2549
Bagabag,16.619194,121.252319
Tacloban,11.227628,125.027758
Bacolod,10.642511,122.929617
Oslo,60.1939,11.1004
Dumaguete,9.333714,123.300472
Caticlan,11.924503,121.95405
Guiuan,11.035544,125.741594
Iloilo,10.713044,122.545297
Kalibo,11.679431,122.376294
Masbate,10.307542,123.979439
Wausau,44.9262845,-89.6270018
Puerto Princesa,9.742119,118.758731
San Jose,10.766044,121.933439
Concordia,-31.296944,-57.996631
Gualeguaychu,-33.010278,-58.613056
Junin,-34.545889,-60.930556
Parana,-31.794778,-60.480361
Rosario,-32.903611,-60785
Santa Fe,-31.711666,-60.811668
Buenos Aires,-34.559175,-58.415606
Cordoba,-31.323619,-64.207953
Gobernador Gordillo,-30.345278,-66.29361
San Fernando,-34.453189,-58.589644
Jose C. Paz,-34.56065,-58.789564
La Plata,-34.972222,-57.894694
Moron,-34.676317,-58.642756
El Palomar,-34.609939,-58.612592
Chosmadal,-37.444692,-70.222469
Fuerte Gral Roca,-39.000672,-67.620514
Mendoza,-32.831717,-68.792856
Malargue,-35.493597,-69.574267
San Rafael,-34.588314,-68.403854
Catamarca,-28.593214,-65.750925
Santiago Del Estero,-27.765617,-64.310122
Tinogasta,-28.03775,-67.580314
La Rioja,-29.381636,-66.795839
Chilecito,-29.223888,-67.438889
Tucuman,-26.840861,-65.104944
San Julian,-31.571472,-68.418194
Rio Cuarto,-33.085128,-64.261314
Villa Dolores,-31.945183,-65.146283
Laboulaye,-34.135444,-63.36225
Marcos Juarez,-32.683639,-62.157792
Villa Reynolds,-33.725144,-65.378086
San Luis,-33.273192,-66.356422
Corrientes,-27.445503,-58.761864
Resistencia,-27.449986,-59.056125
Formosa,-26.212722,-58.228111
Iguazu Falls,-25.737281,-54.473444
Paso De Los Libres,-29.689425,-57.152078
Monte Caseros,-30.271922,-57.640231
Posadas,-27.385839,-55.970728
Presidencia R.s.pena,-26.756519,-60.493103
Salta,-24.855978,-65.486169
Jujuy,-24.392778,-65.097778
Oran,-23.152779,-64.32917
La Quiaca,-22.150556,-65.5775
Portage,43.5603136,-89.4828607
El Dorado,-26.397499,-54.574722
Goya,-29.099472,-59.250583
Obera,-27.518156,-55.124156
Reconquista,-29.210278,-59.68
Curuzu Cuatia,-29.770555,-57.978889
El Bolson,-41.943189,-71.532289
Comodoro Rivadavia,-45.785347,-67.465508
Esquel,-42.90795,-71.139472
Trelew,-43.2105,-65.270319
Viedma,-40.869222,-63.000389
Puerto Madryn,-42.759161,-65.102725
Marambio Base,-64.238335,-56.630833
Puerto Deseado,-47.735292,-65.904097
Rio Grande,-53.777667,-67.749389
Rio Gallegos,-51.608875,-69.312636
Ushuaia,-54.843278,-68.29575
San Julian,-49.306775,-67.802589
Perito Moreno,-46.537911,-70.978689
Santa Cruz,-50.01655,-68.579197
Bahia Blanca,-38.724967,-62.169317
Colonel Suarez,-37.446111,-61.889297
Olavarria,-36.890039,-60.216619
General Pico,-35.696183,-63.758286
Tres Arroyos,-38.386911,-60.329711
Bolivar,-36.186594,-61.076367
Ironwood,46.5274747,-90.1313967
Mar Del Plata,-37.934167,-57.573333
Neuquen,-38949,-68.155711
Mackinac Island,45.8649344,-84.637344
Pehuajo,-35.844592,-61.857553
Santa Rosa,-36.588322,-64.275694
San Carlos De Bariloche,-41.151172,-71.157542
Tandil,-37.237392,-59.227922
Villa Gesell,-37.235408,-57.029239
Cutralco,-38.939683,-69.264642
San Martin Des Andes,-40.075383,-71.137294
Conceicao Do Araguaia,-8.348347,-49.301528
Rio De Janeiro,-22.875083,-43.384708
Amapa,2.077511,-50.858236
Araracuara,-21812,-48.133028
Aracaju,-10984,-37.070333
Assis,-22.638564,-50.455914
Alta Floresta,-9.866092,-56.106206
Aracatuba,-21.141342,-50.424722
Belem,-1.37925,-48.476292
Bage,-31.390528,-54.112244
Belo Horizonte,-19.851181,-43.950628
Curitiba,-25.405078,-49.232036
Barbacena,-21.267167,-43.761056
Brasilia,-15.8711,-47.918625
Bauru,-22.345042,-49.0538
Boa Vista,2.846311,-60.690069
Barra Do Garcas,-15.861344,-52.388894
Cascavel,-25.000339,-53.500764
Itaituba,-9.333936,-54.965422
Belo Horizonte,-19.63375,-43.968856
Campo Grande,-20.468667,-54.6725
Chapeco,-27.134219,-52.656553
Carolina,-7.320444,-47.458667
Criciuma,-28.725817,-49.424739
Porto Alegre,-29.945944,-51.144367
Campos,-21.698333,-41.301669
Corumba,-19.011931,-57.673053
Curitiba,-25.528475,-49.175775
Caravelas,-17.652283,-39.253069
Caxias Do Sul,-29.197064,-51.187536
Cuiaba,-15.652931,-56.116719
Cruzeiro do Sul,-7.599906,-72.769489
President Prudente,-22.175056,-51.424639
Manaus,-3.038611,-60.049721
Jacare-acanga,-6.233156,-57.776869
Sao Pedro Da Aldeia,-22.812872,-42.092633
Foz Do Iguacu,-25.59615,-54.487206
Florianopolis,-27.670489,-48.547181
Fernando Do Noronha,-3.854928,-32.423336
Fronteira,-20.278483,-49.187472
Alpinopolis,-20.702817,-46.335264
Fortaleza,-3.776283,-38.532556
Rio De Janeiro,-22.808903,-43.243647
Guajara-mirim,-10.786375,-65.284792
Goiania,-16.632033,-49.220686
Macae,-21.773683,-48.405078
Sao Paulo,-23.432075,-46.469511
Guaratingueta,-22.791608,-45.204778
Altamira,-3.253906,-52.253978
Itaituba,-3.127256,-58.481186
Itaituba,-4.242342,-56.000669
Ilheus,-14.815964,-39.033197
Ipatinga,-19.470722,-42.487583
Itumbiara,-18.444661,-49.213361
Imperatriz,-5.531292,-47.46005
Belem,-1.414158,-48.460739
Juiz De Fora,-21.7915,-43.386778
Joao Pessoa,-7.148381,-34.950681
Joinville,-26.224453,-48.797364
Campina Grande,-7.269917,-35.896364
Campinas,-23.0075,-47.134444
Lajes,-27.782142,-50.281486
Lins,-21.664039,-49.730519
Londrina,-23.333625,-51.130072
Bom Jesus Da Lapa,-13.262086,-43.408114
Lagoa Santa,-19.661611,-43.896403
Maraba,-5.368589,-49.138025
Almeirim,-0.889839,-52.60225
Maringa,-23.476392,-52.016406
Montes Claros,-16.706925,-43.8189
Grand Marais,47.8383333,-90.3829444
Manaus,-3.146042,-59.9863
Maceio,-9.510808,-35.791678
Macapa,0.050664,-51.072178
Mocord,-5.201919,-37.364347
Sao Paulo,-23.509119,-46.637753
Manicore,-5.811381,-61.278319
Navegantes,-26.879999,-48.65139
Santo Angelo,-28.281683,-54.169139
Natal,-5.911417,-35.247717
Oioiapoque,3.855486,-51.796867
Porto Alegre,-29.994428,-51.171428
Parnaiba,-2.893747,-41.731961
Pocos De Caldas,-21.843014,-46.567917
Passo Fundo,-28.243989,-52.326558
Pelotas,-31.718353,-52.327689
Petrolina,-9.362411,-40.569097
Porto Nacional,-10.719417,-48.399736
Ponta Pora,-22.549639,-55.702614
Porto Velho,-8.709294,-63.902281
Valparaiso,41.4539722,-87.0070833
Rio Branco,-9583,-67.4836
Recife,-8.126794,-34.923039
Rio Grande,-32.082617,-52.166542
Rio De Janeiro,-22.910461,-43.163133
Ribeirao Preto,-21.134167,-47.774189
Rio De Janeiro,-22.93235,-43.719092
Sao Jose Dos Campos,-23.228172,-45.862739
Sao Luis,-2.585361,-44.234139
Sao Paulo,-23.626692,-46.655375
Sao Jose Do Rio Preto,-20.816567,-49.406511
Santos,-23.925206,-46.2875
Salvador,-12.910994,-38.331044
Oriximina,-1.4896,-56.396803
Teresina,-5.059942,-42.823478
Tefe,-3.382944,-64.724056
Tarauaca,-8.155256,-70.783269
Telemaco Borba,-24.317775,-50.651592
Obidos Tirios,2.223472,-55.946056
Tabatinga,-4.255669,-69.935828
Tucurui,-3.786008,-49.720267
Sao Gabriel,-0.148419,-66.985589
Paulo Alfonso,-9.400878,-38.250575
Uruguaiana,-29.782178,-57.038189
Uberlandia,-18.882844,-48.225594
Castilho,-20.777067,-51.564761
Uberaba,-19765,-47.964778
Varginha,-21.590067,-45.473342
Vilhena,-12.694375,-60.098269
Vitoria,-20.258056,-40.286389
Iauarete,0.6075,-69.185837
Piracununga,-21.984561,-47.334764
Arica,-18.348531,-70.338742
Balmaceda,-45.916058,-71.689475
Santiago,-33.5618,-70.6884
Chile Chico,-46.583341,-71.687405
Calama,-22.498175,-68.903575
Chillan,-36.582497,-72.031367
Punta Arenas,-53.002642,-70.854586
Coyhaique,-45.594211,-72.106133
Iquique,-20.535222,-70.181275
Santiago,-33.392975,-70.785803
Antofagasta,-23.444478,-70.4451
Porvenir,-53.2537,-70.319228
Futaleufu,-43.189167,-71.851112
Los Angeles,-37.401731,-72.425444
Puerto Williams,-54.931072,-67.626261
Concepcion,-36.77265,-73.063106
Easter Island,-27.164792,-109.421831
Osorno,-40.611208,-73.061042
Vallenar,-28.596403,-70.755997
Rancagua,-34.173694,-70.775694
Isla Rey Jorge,-62.190833,-58.986667
La Serena,-29.916233,-71.199522
Santiago,-33.456278,-70.546667
Temuco,-38.766819,-72.637097
Puerto Montt,-41.438886,-73.093953
Chaiten,-42.932808,-72.699114
Valdivia,-39.649956,-73.086111
Ambato,-1.212067,-78.574636
Clementia,-1.706275,-79.378936
Coca,-0.462886,-76.986842
Cuenca,-2.889467,-78.984397
Galapagos,-0.453758,-90.265914
Guayaquil,-2.157419,-79.883558
Gualaquiza,-3.423214,-78.566994
Ibarra,0.338419,-78.136422
Km-192,0.184203,-79.391956
La Julia,-1.704381,-79.552261
Latacunga,-0.906833,-78.615756
Macara,-4.378231,-79.941022
Macas,-2.299167,-78.12075
Machala,-3.268903,-79.961572
Montalvo,-2.067014,-76.975742
Manta,-0.946078,-80.678808
Maragrosa,-2.851097,-79.803619
Pasaje,-3.319667,-79.769165
Portoviejo,-1.041647,-80.472206
Quevedo,-0.9894,-79.465114
Quito,-0.141144,-78.488214
Riobamba,-1.653433,-78.656142
Santa Rosa,-3.435161,-79.977817
Salinas,-2.204994,-80.988878
Santo Domingo,-0.248222,-79.214447
Taura,-2.261036,-79.680169
Tena,-0.986767,-77.819447
Tarapoa,-0.122956,-76.33775
Tulcan,0.809506,-77.708056
Silverton,37.812545,-107.662994
Asuncion,-25.23985,-57.519133
Ayolas,-27.37065,-56.853944
Conception,-23.44175,-57.427122
Itaipu,-25.407853,-54.619417
Mariscal Estigarribia,-22.044986,-60.621694
Pilar,-26.881467,-58.318036
Armenia,4.452775,-75.766447
Puerto Asis,0.505228,-76.500836
El Banco,9.045542,-73.974931
Bucaramanga,7.1265,-73.184778
Bogota,4.701594,-74.146947
Barranquilla,10.889589,-74.780819
Bahia Solano,6.202917,-77.394675
Buenaventura,3.819628,-76.989767
Cucuta,7.927567,-72.511547
Cartagena,10.442381,-75.512961
Cali,3.543222,-76.381583
Tumaco,1.814417,-78.749228
Corozal,9.332742,-75.285594
Barrancabermeja,7.024331,-73.8068
Florencia,1.589189,-75.564372
Girardot,4.276242,-74.796692
McCarthy,61.4370608,-142.90307372
Guapi,2.570133,-77.8986
Guaymaral,4.812333,-74.064919
Ibague,4.421608,-75.1333
Ipiales,0.861925,-77.671764
Carepa,7.811956,-76.716428
La Mina,11.232528,-72.490139
Leticia,-4.193549,-69.943163
Medellin,6.219958,-75.590519
Magangue,9.284739,-74.846092
Monteria,8.823744,-75.825831
Mitu,1.253664,-70.233878
Manizales,5.029597,-75.464708
Neiva,2.95015,-75294
Ocana,8.315061,-73.358331
Otu,7.010369,-74.715497
Puerto Bolivar,12.221483,-71.984817
Puerto Carreno,6.184717,-67.493164
Pereira,4.812675,-75.739519
Pitalito,1.857769,-76.085719
Popayan,2.4544,-76.609319
Pasto,1.396247,-77.291478
Providencia,13.356944,-81.35833
Mariquita,5.212556,-74.883647
Rio Negro,6.164536,-75.423119
Rio Hacha,11.526222,-72.925958
San Jose Del Guaviare,2.579694,-72.639358
Santa Marta,11.11965,-74.230647
San Andres Island,12.583594,-81.711192
San Vincente De Caguan,2.152175,-74.76635
Tame,6.451081,-71.760261
Arauca,7.068881,-70.736925
Quibdo,5.690758,-76.641181
Tulua,4.088358,-76.235133
Valledupar,10.435042,-73.249506
Villavicencio,4.167875,-73.613761
Bermejo,-22.773336,-64.312881
Cochabamba,-17.421058,-66.177114
Chapacura,-16.990019,-65.141533
Cobija,-11.040436,-68.782972
La Paz,-16.513339,-68.192256
Oruro,-17.962589,-67.076236
Potosi,-19.543069,-65.723706
Puerto Suarez,-18.975281,-57.820586
Santa Ana,-13.762208,-65.435158
Sucre,-19.007083,-65.288747
Tarija,-21.555736,-64.701325
Trinidad,-14.818739,-64.918019
Villa Montes,-21.255231,-63.405611
Santa Cruz,-17.644756,-63.135364
Yacuiba,-21.960925,-63.651669
Zandery,5.452831,-55.187783
Cayenne,4.819808,-52.360447
St.-georges Oyapock,3.8976,-51.804083
Huancabamba,-5.256767,-79.442856
Andoas,-2.796128,-76.466617
Atalaya,-10.729117,-73.766503
Seward,60.1269383,-149.4188122
Iberia,-11.411578,-69.488711
Pucallpa,-8.377939,-74.574297
Chimbote,-9.149614,-78.52385
Puerto Esperanza,-9.768131,-70.706456
Moquegua,-17.178961,-70.930803
Chiclayo,-6.787475,-79.828097
Ayacucho,-13.154819,-74.204417
Andahuaylas,-13.706408,-73.350378
Anta,-9.347444,-77.598392
Lima,-12.021889,-77.114319
Juanjui,-7.1691,-76.728561
Jauja,-11.783144,-75.473394
Juliaca,-15.467103,-70.158169
Michigan City,41.7033,-86.8211
Ilo,-17.695036,-71.343964
Las Palmas,-12.160708,-76.998942
Tumbes,-3.552528,-80.381356
Yurimaguas,-5.893772,-76.118211
Collique,-11.9287,-77.061139
Chachapoyas,-6.201806,-77.856064
Iquitos,-3.784739,-73.308806
Arequipa,-16.341072,-71.583083
San Ramon,-11.128639,-75.3505
Trujillo,-8.081411,-79.108761
Pisco,-13.744864,-76.220284
Tarapoto,-6.508742,-76.373247
Tacna,-18.053333,-70.275833
Puerto Maldonado,-12.613611,-69.228611
Piura,-5.20575,-80.616444
Talara,-4.576639,-81.254139
Niijima,34.366944,139.268611
Cuzco,-13.535722,-71.938781
Montevideo,-34.789208,-56.264703
Durazno,-33.358867,-56.499172
East Glacier,48.443965,-113.218556
Montevideo,-34.838417,-56.030806
Salto,-31.438481,-57.985294
Acarigua,9.553422,-69.237536
Anaco,9.430225,-64.470725
San Fernando Deatabapo,4.051819,-67.701072
Barcelona,10.107139,-64.689161
Barinas,8.619575,-70.220825
Maracaibo,10.183375,-67.557319
Barquisimeto,10.042747,-69.358619
Ciudad Bolivar,8.121898,-63.537353
Caicara De Orinoco,7.626078,-66.164917
San Carlos,9.647722,-68.574656
Calabozo,8.924656,-67.417094
Canaima,6.231989,-62.854433
Carora,10.175603,-70.065214
Carupano,10.660014,-63.261681
Coro,11.414867,-69.681656
Caracas,10.286589,-66.816219
Cumana,10.450333,-64.130472
Carrizal,9.372167,-66.922989
El Dorado,6.715438,-61.639219
Elorza,7.059722,-69.496694
Guasdualito,7.211081,-70.75645
Guiria,10.574078,-62.312667
Guanare,9.026944,-69.75515
Higuerote,10.462453,-66.092758
Isla De Coche,10.794406,-63.981589
Paraguana,11.780775,-70.151497
San Juan De Los Morros,9.906953,-67.379639
La Fria,8.239167,-72.271028
La Orchila,11.808822,-66.179214
Maracaibo,10.558208,-71.727856
Merida,8.582294,-71.161186
Porlamar,10.912926,-63.967581
Caracas,10.603117,-66.990583
Maturin,9.749067,-63.1534
Puerto Ayacucho,5.619992,-67.606103
Puerto Cabello,10.4805,-68.073025
San Cristobal,7.801317,-72.202847
Guayana,8.288528,-62.760361
Palmarito,7.575706,-70.174328
San Antonio,7.840831,-72.439742
Santa Barbara,7.803514,-71.165717
Santa Ana De Uairen,4.554722,-61.144922
Santo Domingo,7.565111,-72.035125
San Felipe,10.278728,-68.755211
San Fernando De Apure,7.883317,-67.444025
San Tome,8.945147,-64.151083
Santa Barbara,8.974425,-71.943014
Tucupita,9.088994,-62.094175
Tumeremo,7.249381,-61.528933
Valencia,10.149733,-67.9284
Hoexter Holzminden,51.4838,9.2259
Valera,9.340797,-70.584089
Valle De La Pascua,9.222028,-65.993583
Linden,5.965922,-58.270336
Lethem,3.372761,-59.789439
Antigua,17.136749,-61.792667
Bridgetown,13.074603,-59.492456
Canefield,15.336719,-61.392211
Dominica,15.547028,-61.3
Fort-de-france,14.591033,-61.003175
St. Martin,18.099914,-63.047197
Pointe-a-pitre,16.265306,-61.531806
Point Salines,12.004247,-61.786192
St. Thomas,18.337306,-64.973361
St. Croix Island,17.701889,-64.798556
Aguadilla,18.494861,-67.129444
Fajardo,18.308889,-65.661861
San Juan,18.456828,-66.098139
Mayaguez,18.255694,-67.148472
Ponce,18.008306,-66.563028
San Juan,18.439417,-66.001833
Basse Terre,17.311194,-62.718667
Dinslaken,51.3659,6.5155
Castries,14.020228,-60.992936
Hewandorra,13.733194,-60.952597
Oranjestad,12.501389,-70.015221
Kralendijk,12.131044,-68.268511
Willemstad,12.188853,-68.959803
Oranjestad,17.496492,-62.979439
Philipsburg,18.040953,-63.1089
The Valley,18.204834,-63.055084
Scarborough,11.149658,-60.832194
Port-of-spain,10.595369,-61.337242
Tortola,18.444834,-64.542975
Allakaket,66.5519,-152.6222
Canouan Island,12.699042,-61.342431
Mustique,12.887947,-61.180161
Kingstown,13.144306,-61.210861
Alma-ata,43.352072,77.040508
Balkhash,46.893333,75005
Tselinograd,51.022222,71.466944
Dzhambul,42.853611,71.303611
Bishkek,43.061306,74.477556
Osh,40.608989,72.793269
Chimkent,42.364167,69.478889
Yakutat,59.3012,-139.3937
Uralsk,51.150833,51.543056
Pavlodar,52195,77.073889
Semiplatinsk,50.3513,80.2344
Shevchenko,43.86005,51.091978
Aktyubinsk,50.245833,57.206667
Baku,40.4675,50.046667
Yakutsk,62.09325,129.770672
Mirnyj,62.534689,114.038928
Blagoveschensk,50.425394,127.412478
Khabarovsk,48.528044,135.188361
Marquette,46.353611,-87.395278
Provideniya Bay,64.378139,-173.243306
Magadan,59.910989,150.720439
Pevek,69.783283,170.597006
Petropavlovsk,53.167889,158.453669
Yuzhno-sakhalinsk,46.888672,142.717531
Vladivostok,43.398953,132.148017
Chita,52.026317,113.305556
Bratsk,56.370556,101.698331
Irkutsk,52.268028,104.388975
Ulan-ude,51.807764,107.437644
Kiev,50345,30.894722
Donetsk,48.073611,37.739722
Dnepropetrovsk,48.357222,35.100556
Simferopol,45.052222,33.975139
Kiev,50.401694,30.449697
Lvov,49.8125,23.956111
Iron Mountain,45.8183611,-88.1145556
Odessa,46.426767,30.676464
St. Petersburg,59.800292,30.262503
Murmansk,68.781672,32.750822
Gomel,52.527022,31.016692
Vitebsk,55.1265,30.349639
Kaliningrad,54.89005,20.592633
Minsk,53.864472,27.539683
Minsk 2,53.882469,28.030731
Abakan,53.74,91385
Barnaul,53.363775,83.538533
Kemorovo,55.270094,86.107208
Omsk,54.967042,73.310514
Krasnodar,45.034689,39.170539
Makhachkala,42.816822,47.652294
Mineralnye Vody,44.225072,43.081889
Stavropol,45.109165,42.112778
Rostov,47.258208,39.818089
Sochi,43.449928,39.956589
Astrakhan,46.283333,48.006278
Volgograd,48.782528,44.345544
Chelyabinsk,55.305836,61.503333
Magnetiogorsk,53.393131,58.755661
Claris,-36.1429,175.2819
Nizhnevartovsk,60.949272,76.483617
Perm,57.914517,56.021214
Surgut,61.343694,73.401842
Yekaterinburg,56.743108,60.802728
Ashkhabad,37.986814,58.360967
Krasnovodsk,40.063333,53.007222
Chardzhou,39.083333,63.613333
Dushanbe,38.543333,68825
Bukhara,39775,64.483333
Samarkand,39.700547,66.983829
Doha,25.1174,51.3228
Tashkent,41.257861,69.281186
Bryansk,53.214194,34.176447
Moscow,55.972642,37.414589
Tver,56.824736,35.757678
Voronezh,51.814211,39.229589
Moscow,55.591531,37.261486
Syktyvkar,61.64705,50.84505
Kazan,55.606186,49.278728
Orenburg,51.795786,55.456744
Ufa,54.557511,55.874417
Samara,53.504858,50.164336
Ahmedabad,23.077242,72.63465
Akola,20.699006,77.058628
Aurangabad,19.862728,75.398114
Mumbai,19.088686,72.867919
Bilaspur,21.9884,82.110983
Bhuj,23.287828,69.670147
Belgaum,15.859286,74.618292
Baroda,22.336164,73.226289
Bhopal,23.287467,77.337375
Bhaunagar,21.752206,72.185181
Daman,20.434364,72.843206
Deesa,24.267936,72.204433
Guna,24.654681,77.347347
Goa,15.380833,73.831422
Indore,22.721786,75.801086
Jabalpur,23.177817,80.052047
Jamnagar,22.465522,70.012556
Kandla,23.112719,70.100289
Khajuraho,24.817197,79.918597
Kolhapur,16.664658,74.289353
Keshod,21.317069,70.270403
Nagpur,21.092192,79.047183
Nasik Road,19.963739,73.807644
Pune,18.582111,73.919697
Porbandar,21.648675,69.657219
Rajkot,22.309183,70.779525
Raipur,21.180406,81.738753
Sholapur,17.627958,75.934842
Surat,21.114061,72.741792
Udaipur,24.617697,73.8961
Colombo,7.180756,79.884117
Anuradhapura,8.301486,80.4279
Batticaloa,7.705756,81.678783
Colombo,6.821994,79.886208
Galoya,7.337081,81.625881
Jaffna,9.792331,80.070089
Trinciomalee,8.538514,81.181853
Kirkuk,35.17,44.3483
Kompong Chnang,12.255236,104.563875
Phnom-penh,11.546556,104.844139
Siem-reap,13.410666,103.81284
Stung Treng,13.531897,106.014531
Along,28.175317,94.802036
Agartala,23.886978,91.24045
Aizwal,23.746603,92.802767
Baghdogra,26.681206,88.328567
Bokaro,23.643489,86.148886
Bhubaneswar,20.244364,85.817781
Kolkata,22.654739,88.446722
Cooch-behar,26.330508,89.467203
Dhanbad,23.834044,86.425261
Escanaba,45.722778,-87.093611
Lillinghof,49.6543,11.6539
Gaya,24.744308,84.951175
Hirakud,21.580231,84.005728
Imphal,24.75995,93.896697
Jharsuguda,21.913536,84.050383
Jamshedpur,22.813211,86.168844
Jorhat,26.731528,94.175536
Kailashahar,24.308192,92.007156
Silchar,24.912928,92.978742
Lilabari,27.295494,94.09765
Mohanbari,27.483853,95.016922
Mazuffarpur,26.119089,85.313664
Nawapara,20.870036,82.519553
Panagarh,23.474336,87.427508
Patina,25.591317,85.087992
Purnea,25.759594,87.410011
Ranchi,23.31425,85.321675
Rourkela,22.25665,84.814567
Utkela,20.097411,83.183797
Vishakhapatnam,17.721167,83.224483
Zero,27.588283,93.828061
Cox's Bazar,21.452194,91.963889
Chittagong,22.249611,91.813286
Ishurdi,24.1525,89.049446
Jessore,23.1838,89.160833
Rajshahi,24.437219,88.616511
Saidpur,25.759228,88.908869
Sylhet Osmani,24.963242,91.866783
Dhaka,23.778783,90.382689
Dhaka,23.843333,90.397781
Hong Kong,22.308919,113.914603
Sek Kong,22.436592,114.080397
Agra,27.155831,77.960892
Allahabad,25.440064,81.733872
Amritsar,31.709594,74.797264
Bikaner,28.070606,73.207161
Bakshi Ka Talab,26.988339,80.893117
Varanasi,25.452358,82.859342
Kulu,31.876706,77.154367
Bhatinda,30.270139,74.755772
Bhiwani,28.837039,76.179094
Bareilly,28.422061,79.450842
Chandigarh,30.673469,76.788542
Kanpur,26.4043,80.410119
Delhi,28.584511,77.205783
Dehra Dun,30.189689,78.180256
Delhi,28.5665,77.103088
Gwalior,26.293336,78.227753
Hissar,29.179444,75.755336
Jhansi,25.491172,78.558422
Jodhpur,26.251092,73.048869
Jaipur,26.824192,75.812161
Jaisalmer,26.888653,70.864967
Jammu,32.689142,74.837389
Kanpur,26.441444,80.364864
Kota,25.160219,75.845631
Ludhiaha,30.854681,75.952592
Leh,34.135872,77.546514
Lucknow,26.760594,80.889339
Pathankot,32.233778,75.634628
Patiala,30.314847,76.364469
Nainital,29.033408,79.473744
Raibarelli,26.248489,81.380506
Saharanpur,29.993919,77.425311
Srinagar,33.987139,74.77425
Satna,24.562319,80.854933
Balkhash,46.8933,75005
Luang Prabang,19.897914,102.160764
Pakse,15.132053,105.781417
Phong Savanh,19.454864,103.218208
Savannakhet,16.556594,104.759531
Sam Neua,20.418358,104.066583
Vientiane,17.988322,102.563256
Macau,22.149556,113.591558
Bhairawa,27.505703,83.41625
Nastaetten,50.1972,7.8916
Janakpur,26.708806,85.922394
Kathmandu,27.696583,85.3591
Pokhara,28.200881,83.982056
Simara,27.159456,84.980122
Biratnagar,26.481453,87.264036
Agatti Island,10.823656,72.176042
Bangalore,12.949986,77.668206
Bellary,15.162783,76.882775
Bidar,17.908081,77.487142
Vijayawada,16.530433,80.796847
Coimbatore,11.030031,77.043383
Kochi,10.155556,76.391389
Calicut,11.136839,75.9553
Cuddapah,14.509961,78.772833
Carnicobar,9.152508,92.819628
Dundigul,17.627178,78.403361
Hyderabad,17.453117,78.467586
Madurai,9.834508,78.093378
Mangalore,12.961267,74.890069
Madras,12.994414,80.180517
Nagarjunsagar,16.542653,79.318714
Port Blair,11.641161,92.729744
Pendicherry,11.968722,79.810058
Rajahmundry,17.110361,81.818208
Salem,11.783314,78.065606
Tanjore,10.722428,79.101567
Tirupeti,13.632492,79.543256
Tiruchirappalli,10.765364,78.709722
Trivandrum,8.482122,76.920114
Tambaram,12.907214,80.121861
Thimphu,27.403192,89.424606
Male,4.191833,73.529128
Bangkok,13.912583,100.60675
Nakhon Pathom,14.101975,99.917219
Lop Buri,14.874561,100.663367
Naha,3.683214,125.528019
Pattaya,12.679944,101.005028
Prachin Buri,13.7688,102.315492
Lampang,18.270933,99.504167
Phrae,18.132169,100.164664
Prachuap Khiri Khan,12.636225,99.951533
Nakhon Sawan,15.277306,100.295861
Phetchabun,16.824322,101.251389
Nakhon Sawan,15.672997,100.136794
Phitsanulok,16.782939,100.279122
Tak,17.234211,99.057911
Satun,6.661403,100.080317
Narathiwat,6.519922,101.7434
Krabi,8.095969,98.988764
Songkhla,7.186564,100.608031
Pattani,6.785458,101.153569
Ko Samui,9.547794,100.062272
Nakhon Si Thammarat,8.471147,99.955625
Phuket,8.1132,98.316872
Ranong,9.777622,98.585483
Hat Yai,6.933206,100.392975
Trang,7.508744,99.616578
Udon Thani,17.386436,102.788247
Sakon Nakhon,17.195142,104.118625
Surin,14.868264,103.498256
Loei,17.439133,101.722064
Nakhon Ratchasima,14.934514,102.078639
Roi Et,16.07035,103.6459
Finsterwalde,51.6377,13.2419
Fraser Island,-24.95841,153.3145
Mara Lodges,-1.183581,35.099931
Danang,16.043917,108.19937
Hanoi,21.040975,105.886011
Kep,21.394639,106.261083
Hanoi,21.221192,105.807178
Nhatrang,12.227467,109.192322
Hue,16.4015,107.702614
Namanga,-2.55,36.7833333
Phuquoc,10.227025,103.967169
Ho Chi Minh City,10.818797,106.651856
Ann,19.769156,94.026133
Anisakan,21.955433,96.40605
Bagan,21.178756,94.930169
Bamburi,-3.98268888888889,39.7308972222222
Coco Island,14.141517,93.368531
Heho,20.747036,96.792044
Hommalin,24.899597,94.914033
Kengtung,21.301611,99.635997
Marion,37.7549569,-89.0110936
Kyaukpyu,19.426447,93.534836
Lommis,47.5244,9.00306
Lashio,22.977881,97.752183
Lanywa,20.940361,94.822617
Mandalay,21.702156,95.977928
Myeik,12.439797,98.621478
Myitkyina,25.383636,97.351919
Momeik,23.092525,96.645272
Mong Hsat,20.516758,99.256825
Nampong,25.354375,97.29515
Namsang,20.890492,97.735922
Hpa-an,16.893714,97.674581
Amlikon,47.5742,9.0475
Putao,27.329922,97.426269
Pyay,18.824478,95.266003
Shante,20.941668,95.914497
Sittwe,20.132708,92.872628
Thandwe,18.460731,94.300119
Tachilek,20.483831,99.935353
Taungoo,19.031275,96.401239
Yangon,16.907305,96.133222
Ujung Pandang,-5.061631,119.554042
Biak,-1.190017,136.107997
Nabire,-3.368183,135.496406
Timika,-4.528275,136.887375
Jayapura,-2.576953,140.516372
Wamena,-4.102511,138.957372
Merauke,-8.520294,140.418453
Gorontalo,0.637119,122.849858
Seoul,37.469075,126.450517
Palu,-0.918542,119.909642
Manado,1.549447,124.925878
Poso,-1.416753,120.657669
Morotai Island,2.045992,128.324708
Ternate,0.831414,127.381486
Luwuk,-1.038919,122.771906
Mukacheve,48.4,22.6833
Ambon,-3.710264,128.089136
Fak Fak,-2.920192,132.267031
Kaimana,-3.644517,133.695553
Babo,-2.532242,133.438894
Manokwari,-0.891833,134.049183
Sorong,-0.926358,131.121194
Bintulu,3.12385,113.020472
Kuching,1.484697,110.346933
Limbang,4.808303,115.010439
Marudi,4.1775,114.321944
Miri,4.322014,113.986806
Sibu,2.261603,111.985322
Lahad Datu,5.032247,118.324036
Kota Kinabalu,5.937208,116.051181
Labuan,5.300683,115.250181
Tawau,4.313369,118.121953
Bandar Seri Begawan,4.9442,114.928353
Pekanbaru,0.460786,101.444539
Dumai,1.609194,101.433558
Jakarta,-6.125567,106.655897
Gunung Sitoli,1.166381,97.704681
Padang Sidempuan,1.400103,99.430453
Padang,-0.874989,100.351881
Medan,3.558056,98.671722
Sibolga,1.555944,98.888908
Nangapinoh,-0.348869,111.747606
Ketapang,-1.816639,109.963483
Mukacheve,48.4,22683
Pontianak,-0.150711,109.403892
Minsk,53.57,27.39
Hellwege,53054,9.208667
Jambi,-1.638017,103.644378
Bengkulu,-3.8637,102.339036
Palembang,-2.89825,104.699903
Rengat,-0.352808,102.334917
Lhok Sukon,5.069506,97.259192
Strymba,47.8381,27.7815
Banda Aceh,5.523522,95.420372
Kluang,2.041394,103.307394
Alor Setar,6.189667,100.398183
Butterworth,5.465917,100.391167
Kota Bahru,6.16685,102.293014
Kuantan,3.775389,103.209056
Kerteh,4.537222,103.426756
Simpang,3.11225,101.70275
Ipoh,4.567972,101.092194
Johor Bahru,1.641308,103.669619
Kuala Lumpur,2.745578,101.709917
Pulau,6.329728,99.728667
Malacca,2.263361,102.251553
Kuala Terengganu,5.382639,103.10336
Penang,5.297139,100.276864
Suai,-9.303306,125.286753
Dili,-8.546553,125.524719
Baucau,-8.485547,126.399389
Sembawang,1.425264,103.812806
Paya Lebar,1.360417,103.90953
Tengah,1.387258,103.708719
Singapore,1.41695,103.867653
Singapore,1.350189,103.994433
Brisbane,-27.570278,153.008056
Amberley,-10.950833,142.459444
Alice Springs,-23.806667,133.902222
Brisbane,-27.384167,153.1175
Coolangatta,-28.164444,153.504722
Cairns,-16.885833,145.755278
Charlieville,-26.413334,146.2625
Mount Isa,-20.663889,139.488611
Maroochydore,-26.603333,153.091111
Mackay,-21.171667,149.179722
Prosserpine,-20495,148.552222
Rockhampton,-23.381944,150.475278
Townsville,-19.2525,146.765278
Weipa,-12.678611,141.925278
Avalon,-38.039444,144.469444
Albury,-36.067778,146.958056
Melbourne,-37.728056,144.901944
East Sale,-38.098889,147.149444
Hobart,-42.836111,147.510278
Launceston,-41.545278,147.214167
Melbourne,-37.975833,145.102222
Melbourne,-37.673333,144.843333
Point Cook,-37.932222,144.753333
Adelaide,-34945,138.530556
Edinburgh,-34.7025,138.620833
Perth,-32.0975,115.881111
Karratha,-20.712222,116.773333
Kalgoorlie,-30.789444,121.461667
Kununurra,-15.778056,128.7075
Learmonth,-22.235556,114.088611
Port Hedland,-20.377778,118.626389
Adelaide,-34.793333,138.633056
Perth,-31.940278,115.966944
Woomera,-31.144167,136.816944
Christmas Island,-10.450556,105.690278
Sydney,-33.924444,150.988333
Canberra,-35.306944,149195
Coff's Harbour,-30.320556,153.116389
Camden,-34.040278,150.687222
Dubbo,-32.216667,148.574722
Norfolk Island,-29.041625,167.938742
Richmond,-33.600556,150.780833
Sydney,-33.946111,151.177222
Tamworth,-31.083889,150.846667
Wagga Wagga,-35.165278,147.466389
Beijing,40.080111,116.584556
Hongyuan,32.800428,102.534785
Hailar,49.204997,119825
Tianjin,39.124353,117.346183
Taiyuan,37.746897,112.628428
Guangzhou,23.392436,113.298786
Changcha,28.189158,113.219633
Guilin,25.218106,110.039197
Nanning,22.608267,108.172442
Shenzhen,22.639258,113.810664
Zhengzhou,34.519672,113.840889
Wuhan,30.783758,114.2081
Pyongyang,39.224061,125.67015
Lanzhou,36.515242,103.620775
Xi'an,34.447119,108.751592
Ulan Bator,47.843056,106.766639
Jinghonggasa,21.973914,100.759611
Kunming,24.992364,102.743536
Xiamen,24.544036,118.127739
Nanchang,28865,115.9
Fuzhou,25.935064,119.663272
Hangzhou,30.229503,120.434453
Ninbo,29.826683,121.461906
Nanjing,31.742042,118.862025
Hefei,31.780019,117.298436
Qingdao,36.266108,120.374436
Shanghai,31.197875,121.336319
Yantai,37.401667,121.371667
Chongqing,29.719217,106.641678
Guiyang,26.538522,106.800703
Chengdu,30.578528,103.947086
Xichang,27.989083,102.184361
Kashi,39.542922,76.019956
Hotan,37.038522,79.864933
Urumqi,43.907106,87.474244
Harbin,45.623403,126.250328
Hohenems,47385,9.7
Mudanjiang,44.524072,129.568972
Dalian,38.965667,121.5386
Shanghai,31.143378,121.805214
Tioman,2.818183,104.160019
Kuala Lumpur,3.130583,101.549333
Wajima,37.293097,136.961853
Alexandria,30.917669,29.696408
Barter Island,70.133989,-143.581867
Fort Wainwright,70.613378,-159.86035
Cape Lisburne,68.875133,-166.110022
Point Lay,69.732875,-163.005342
Hilo,19.721375,-155.048469
Orlando,28.545464,-81.332936
Bettles,66.913944,-151.529056
Clear Mews,64.301203,-149.120144
Indian Mountains,65.992794,-153.704289
Fort Yukon,66.571492,-145.250417
Sparrevohn,61.097369,-155.574228
Fort Richardson,61.266381,-149.653119
Tatalina,62.894369,-155.976525
Cape Romanzof,61.780297,-166.038747
Bedford,42.469953,-71.289031
St. Paul Island,57.167333,-170.220444
Cape Newenham,58.646428,-162.062778
Point Barrow,56.578344,-169.661611
Iliamna,59.754356,-154.910961
Port Moller,59.011356,-161.819664
Big Mountain,59.361247,-155.258822
Oscoda,44.451558,-83.394053
Fort Ord,36.681878,-121.762347
Sacramento,38.553897,-121.297592
Fort Irwin,35.280531,-116.630031
Twenty Nine Palms,34.296161,-116.162203
Fort Smith,35.336583,-94.367444
Anchorage,61.213544,-149.844447
Grants,35.167286,-107.901989
Ponca City,36.731958,-97.099781
Hunter Aaf,32.01,-81.145683
Grand Forks,47.949256,-97.176111
Pine Bluff,34.173142,-91.935597
Milton,30.724167,-87.021944
Hana,20.795636,-156.014439
Prescott,34.654472,-112.419583
Trenton,40.276692,-74.813469
Boston,42.364347,-71.005181
Fairfield,38.262692,-121.927464
Rome,43.2338,-75.407033
Wendover,40.718694,-114.030889
Mobile,30.626783,-88.068092
Oakland,37.721278,-122.220722
Omaha,41.303167,-95.894069
Port Angeles,48.141481,-123.414075
Kahului,20.89865,-156.430458
Wichita,37.649944,-97.433056
Kansas City,39.297606,-94.713905
Madison,43.139858,-89.337514
Dillingham,59.044667,-158.5055
Harrison,36.261519,-93.154728
Phoenix,33.434278,-112.011583
Bangor,44.807444,-68.828139
Fort Lauderdale,26.197281,-80.170706
Longview,32.384014,-94.711486
Andersen,34.494583,-82.709389
Spokane,47.619861,-117.533833
Hollywood,26.001222,-80.240722
San Francisco,37.618972,-122.374889
Cutbank,48.608353,-112.376144
Louisiana,30.037758,-91.883896
Gainesville,29.690056,-82.271778
Memphis,35.042417,-89.976667
Douglas,31.469028,-109.603667
Delta Junction,63.994547,-145.721642
Waco,31.637831,-97.074139
Annette Island,55.042436,-131.572233
Caribou,46.8715,-68.017917
Jacksonville,34.916944,-92.149722
Redstone,34.678653,-86.684781
Fort Bragg,35.170883,-79.014472
Dalhart,36.022586,-102.547278
Del Rio,29.359486,-100.777975
Los Angeles,33.942536,-118.408075
Anniston,33.588167,-85.858111
Cleveland,41.411689,-81.849794
Dover,39.129539,-75.465958
Cincinnati,39.048836,-84.667822
Fort Meade,39.085386,-76.759414
China,35.685422,-117.692039
Huron,44.3852,-98.228542
Juneau,58.354972,-134.576278
Lafayette,30.205278,-91.987611
Newark,40.6925,-74.168667
Boise,43.564361,-116.222861
Indian Springs,36.587183,-115.673353
Garden City,37.927528,-100.724417
